var hiroshima={"type":"FeatureCollection","name":"hiroshima","features":[
{"type":"Feature","geometry":{"type":"Point","coordinates":[132.444942707498,34.5514578436318]},"properties":{"Name":"飯室児童館","Jusho":"広島県安佐北区安佐町飯室1544","kouzui":"○","gake":"○","takashio":"○","jishin":"×","tsunami":"×","kaji":"×","naisui":"×","kazan":"×"}}
,{"type":"Feature","geometry":{"type":"Point","coordinates":[132.631878,34.381756]},"properties":{"Name":"阿戸学区集会所","Jusho":"広島県広島市安芸区阿戸町2488-5","kouzui":"○","gake":"○","takashio":"○","jishin":"×","tsunami":"×","kaji":"×","naisui":"×","kazan":"×"}}
,{"type":"Feature","geometry":{"type":"Point","coordinates":[132.626452,34.383655]},"properties":{"Name":"阿戸認定こども園","Jusho":"広島県広島市安芸区阿戸町2622","kouzui":"○","gake":"○","takashio":"○","jishin":"×","tsunami":"×","kaji":"×","naisui":"×","kazan":"×"}}
,{"type":"Feature","geometry":{"type":"Point","coordinates":[132.626545,34.384567]},"properties":{"Name":"阿戸中学校","Jusho":"広島県広島市安芸区阿戸町2847","kouzui":"○","gake":"×","takashio":"○","jishin":"×","tsunami":"×","kaji":"×","naisui":"×","kazan":"×"}}
,{"type":"Feature","geometry":{"type":"Point","coordinates":[132.626493,34.3849]},"properties":{"Name":"阿戸小学校","Jusho":"広島県広島市安芸区阿戸町2862-1","kouzui":"○","gake":"○","takashio":"○","jishin":"○","tsunami":"×","kaji":"×","naisui":"×","kazan":"×"}}
,{"type":"Feature","geometry":{"type":"Point","coordinates":[132.620662,34.397285]},"properties":{"Name":"阿戸生活改善センター","Jusho":"広島県広島市安芸区阿戸町4020-1","kouzui":"○","gake":"×","takashio":"○","jishin":"×","tsunami":"×","kaji":"×","naisui":"×","kazan":"×"}}
,{"type":"Feature","geometry":{"type":"Point","coordinates":[132.625273,34.383913]},"properties":{"Name":"阿戸福祉センター","Jusho":"広島県広島市安芸区阿戸町6038","kouzui":"○","gake":"×","takashio":"○","jishin":"×","tsunami":"×","kaji":"×","naisui":"×","kazan":"×"}}
,{"type":"Feature","geometry":{"type":"Point","coordinates":[132.625366,34.381403]},"properties":{"Name":"阿戸公民館","Jusho":"広島県広島市安芸区阿戸町6166","kouzui":"○","gake":"×","takashio":"○","jishin":"×","tsunami":"×","kaji":"×","naisui":"×","kazan":"×"}}
,{"type":"Feature","geometry":{"type":"Point","coordinates":[132.625544,34.381196]},"properties":{"Name":"阿戸児童館","Jusho":"広島県広島市安芸区阿戸町6175-2","kouzui":"○","gake":"×","takashio":"○","jishin":"×","tsunami":"×","kaji":"×","naisui":"×","kazan":"×"}}
,{"type":"Feature","geometry":{"type":"Point","coordinates":[132.638467,34.429369]},"properties":{"Name":"瀬野川公園","Jusho":"広島県広島市安芸区上瀬野","kouzui":"○","gake":"○","takashio":"○","jishin":"×","tsunami":"×","kaji":"×","naisui":"×","kazan":"×"}}
,{"type":"Feature","geometry":{"type":"Point","coordinates":[132.620118,34.425103]},"properties":{"Name":"瀬野学区集会所","Jusho":"広島県広島市安芸区上瀬野2-16-12","kouzui":"○","gake":"×","takashio":"○","jishin":"×","tsunami":"×","kaji":"×","naisui":"×","kazan":"×"}}
,{"type":"Feature","geometry":{"type":"Point","coordinates":[132.63153,34.417639]},"properties":{"Name":"荒谷集会所","Jusho":"広島県広島市安芸区上瀬野町399-3","kouzui":"○","gake":"×","takashio":"○","jishin":"×","tsunami":"×","kaji":"×","naisui":"×","kazan":"×"}}
,{"type":"Feature","geometry":{"type":"Point","coordinates":[132.629796,34.432459]},"properties":{"Name":"中大山集会所","Jusho":"広島県広島市安芸区上瀬野町758","kouzui":"○","gake":"×","takashio":"○","jishin":"×","tsunami":"×","kaji":"×","naisui":"×","kazan":"×"}}
,{"type":"Feature","geometry":{"type":"Point","coordinates":[132.620171,34.420508]},"properties":{"Name":"朝宮集会所","Jusho":"広島県広島市安芸区上瀬野南1-1995","kouzui":"○","gake":"○","takashio":"○","jishin":"×","tsunami":"×","kaji":"×","naisui":"×","kazan":"×"}}
,{"type":"Feature","geometry":{"type":"Point","coordinates":[132.605145,34.420962]},"properties":{"Name":"瀬野公民館","Jusho":"広島県広島市安芸区瀬野1-29-21","kouzui":"○","gake":"×","takashio":"○","jishin":"×","tsunami":"×","kaji":"×","naisui":"×","kazan":"×"}}
,{"type":"Feature","geometry":{"type":"Point","coordinates":[132.606132,34.421272]},"properties":{"Name":"瀬野幼稚園","Jusho":"広島県広島市安芸区瀬野1-35-1","kouzui":"○","gake":"×","takashio":"○","jishin":"×","tsunami":"×","kaji":"×","naisui":"×","kazan":"×"}}
,{"type":"Feature","geometry":{"type":"Point","coordinates":[132.606828,34.421787]},"properties":{"Name":"瀬野小学校","Jusho":"広島県広島市安芸区瀬野1-35-32","kouzui":"○","gake":"×","takashio":"○","jishin":"○","tsunami":"×","kaji":"×","naisui":"×","kazan":"×"}}
,{"type":"Feature","geometry":{"type":"Point","coordinates":[132.607396,34.422081]},"properties":{"Name":"瀬野児童館","Jusho":"広島県広島市安芸区瀬野1-36-13","kouzui":"○","gake":"×","takashio":"○","jishin":"×","tsunami":"×","kaji":"×","naisui":"×","kazan":"×"}}
,{"type":"Feature","geometry":{"type":"Point","coordinates":[132.59756,34.42165]},"properties":{"Name":"瀬野福祉センター","Jusho":"広島県広島市安芸区瀬野1-4-19","kouzui":"○","gake":"○","takashio":"○","jishin":"×","tsunami":"×","kaji":"×","naisui":"×","kazan":"×"}}
,{"type":"Feature","geometry":{"type":"Point","coordinates":[132.590125,34.4267]},"properties":{"Name":"みどり坂小学校","Jusho":"広島県広島市安芸区瀬野西1-38-1","kouzui":"○","gake":"○","takashio":"○","jishin":"○","tsunami":"×","kaji":"×","naisui":"×","kazan":"×"}}
,{"type":"Feature","geometry":{"type":"Point","coordinates":[132.598708,34.424314]},"properties":{"Name":"みどり坂第一公園","Jusho":"広島県広島市安芸区瀬野西2-2","kouzui":"×","gake":"×","takashio":"×","jishin":"○","tsunami":"×","kaji":"×","naisui":"×","kazan":"×"}}
,{"type":"Feature","geometry":{"type":"Point","coordinates":[132.589313,34.428643]},"properties":{"Name":"みどり坂中央公園","Jusho":"広島県広島市安芸区瀬野西4-1","kouzui":"×","gake":"×","takashio":"×","jishin":"○","tsunami":"×","kaji":"×","naisui":"×","kazan":"×"}}
,{"type":"Feature","geometry":{"type":"Point","coordinates":[132.590062,34.429908]},"properties":{"Name":"みどり坂学区集会所","Jusho":"広島県広島市安芸区瀬野西4-4-10","kouzui":"○","gake":"○","takashio":"○","jishin":"×","tsunami":"×","kaji":"×","naisui":"×","kazan":"×"}}
,{"type":"Feature","geometry":{"type":"Point","coordinates":[132.58698,34.437074]},"properties":{"Name":"立石集会所","Jusho":"広島県広島市安芸区瀬野町2737-9","kouzui":"○","gake":"×","takashio":"○","jishin":"×","tsunami":"×","kaji":"×","naisui":"×","kazan":"×"}}
,{"type":"Feature","geometry":{"type":"Point","coordinates":[132.60089,34.419879]},"properties":{"Name":"正之坪集会所","Jusho":"広島県広島市安芸区瀬野南1-15-7","kouzui":"○","gake":"○","takashio":"○","jishin":"×","tsunami":"×","kaji":"×","naisui":"×","kazan":"×"}}
,{"type":"Feature","geometry":{"type":"Point","coordinates":[132.517672,34.375894]},"properties":{"Name":"船越西部保育園","Jusho":"広島県広島市安芸区船越1-41-9","kouzui":"○","gake":"○","takashio":"×","jishin":"×","tsunami":"×","kaji":"×","naisui":"×","kazan":"×"}}
,{"type":"Feature","geometry":{"type":"Point","coordinates":[132.518412,34.377329]},"properties":{"Name":"西古谷集会所","Jusho":"広島県広島市安芸区船越1-9-11","kouzui":"○","gake":"○","takashio":"○","jishin":"×","tsunami":"×","kaji":"×","naisui":"×","kazan":"×"}}
,{"type":"Feature","geometry":{"type":"Point","coordinates":[132.52562,34.378748]},"properties":{"Name":"岩滝公園","Jusho":"広島県広島市安芸区船越4-12","kouzui":"×","gake":"×","takashio":"×","jishin":"○","tsunami":"○","kaji":"×","naisui":"×","kazan":"×"}}
,{"type":"Feature","geometry":{"type":"Point","coordinates":[132.528161,34.374697]},"properties":{"Name":"船越東部集会所","Jusho":"広島県広島市安芸区船越5-22-1","kouzui":"○","gake":"○","takashio":"×","jishin":"×","tsunami":"×","kaji":"×","naisui":"×","kazan":"×"}}
,{"type":"Feature","geometry":{"type":"Point","coordinates":[132.52716,34.374805]},"properties":{"Name":"船越小学校","Jusho":"広島県広島市安芸区船越5-22-11","kouzui":"○","gake":"○","takashio":"○","jishin":"○","tsunami":"×","kaji":"×","naisui":"×","kazan":"×"}}
,{"type":"Feature","geometry":{"type":"Point","coordinates":[132.526146,34.373873]},"properties":{"Name":"船越公民館","Jusho":"広島県広島市安芸区船越5-22-23","kouzui":"○","gake":"○","takashio":"×","jishin":"×","tsunami":"×","kaji":"×","naisui":"×","kazan":"×"}}
,{"type":"Feature","geometry":{"type":"Point","coordinates":[132.52576,34.374436]},"properties":{"Name":"船越幼稚園","Jusho":"広島県広島市安芸区船越5-22-41","kouzui":"○","gake":"○","takashio":"×","jishin":"×","tsunami":"×","kaji":"×","naisui":"×","kazan":"×"}}
,{"type":"Feature","geometry":{"type":"Point","coordinates":[132.533293,34.383084]},"properties":{"Name":"船越中学校","Jusho":"広島県広島市安芸区船越6-44-1","kouzui":"○","gake":"×","takashio":"○","jishin":"○","tsunami":"○","kaji":"×","naisui":"×","kazan":"×"}}
,{"type":"Feature","geometry":{"type":"Point","coordinates":[132.526794,34.37212]},"properties":{"Name":"安芸区民文化センター","Jusho":"広島県広島市安芸区船越南3-2-16","kouzui":"○","gake":"○","takashio":"○","jishin":"×","tsunami":"×","kaji":"×","naisui":"×","kazan":"×"}}
,{"type":"Feature","geometry":{"type":"Point","coordinates":[132.52348,34.369656]},"properties":{"Name":"船越南部保育園","Jusho":"広島県広島市安芸区船越南3-21-23","kouzui":"×","gake":"○","takashio":"×","jishin":"×","tsunami":"×","kaji":"×","naisui":"×","kazan":"×"}}
,{"type":"Feature","geometry":{"type":"Point","coordinates":[132.52644,34.371329]},"properties":{"Name":"北鴻治集会所","Jusho":"広島県広島市安芸区船越南3-25-31","kouzui":"○","gake":"○","takashio":"×","jishin":"×","tsunami":"×","kaji":"×","naisui":"×","kazan":"×"}}
,{"type":"Feature","geometry":{"type":"Point","coordinates":[132.55657,34.387504]},"properties":{"Name":"下前田集会所","Jusho":"広島県広島市安芸区中野2-34-11","kouzui":"○","gake":"×","takashio":"○","jishin":"×","tsunami":"×","kaji":"×","naisui":"×","kazan":"×"}}
,{"type":"Feature","geometry":{"type":"Point","coordinates":[132.560558,34.38938]},"properties":{"Name":"中野西集会所","Jusho":"広島県広島市安芸区中野2-6-21","kouzui":"○","gake":"○","takashio":"○","jishin":"×","tsunami":"×","kaji":"×","naisui":"×","kazan":"×"}}
,{"type":"Feature","geometry":{"type":"Point","coordinates":[132.570104,34.396652]},"properties":{"Name":"中野公民館","Jusho":"広島県広島市安芸区中野3-20-9","kouzui":"○","gake":"×","takashio":"○","jishin":"×","tsunami":"×","kaji":"×","naisui":"×","kazan":"×"}}
,{"type":"Feature","geometry":{"type":"Point","coordinates":[132.57315,34.399315]},"properties":{"Name":"中野小学校","Jusho":"広島県広島市安芸区中野4-21-1","kouzui":"○","gake":"×","takashio":"○","jishin":"○","tsunami":"×","kaji":"×","naisui":"×","kazan":"×"}}
,{"type":"Feature","geometry":{"type":"Point","coordinates":[132.573654,34.398675]},"properties":{"Name":"中野児童館","Jusho":"広島県広島市安芸区中野4-21-2","kouzui":"○","gake":"×","takashio":"○","jishin":"×","tsunami":"×","kaji":"×","naisui":"×","kazan":"×"}}
,{"type":"Feature","geometry":{"type":"Point","coordinates":[132.57265,34.401156]},"properties":{"Name":"瀬野川中学校","Jusho":"広島県広島市安芸区中野4-24-1","kouzui":"○","gake":"×","takashio":"○","jishin":"○","tsunami":"×","kaji":"○","naisui":"×","kazan":"×"}}
,{"type":"Feature","geometry":{"type":"Point","coordinates":[132.581653,34.402982]},"properties":{"Name":"中野東児童館","Jusho":"広島県広島市安芸区中野5-11-1","kouzui":"○","gake":"○","takashio":"○","jishin":"×","tsunami":"×","kaji":"×","naisui":"×","kazan":"×"}}
,{"type":"Feature","geometry":{"type":"Point","coordinates":[132.58096,34.403904]},"properties":{"Name":"中野東小学校","Jusho":"広島県広島市安芸区中野5-11-1","kouzui":"○","gake":"○","takashio":"○","jishin":"○","tsunami":"×","kaji":"×","naisui":"×","kazan":"×"}}
,{"type":"Feature","geometry":{"type":"Point","coordinates":[132.579161,34.403117]},"properties":{"Name":"中野保育園","Jusho":"広島県広島市安芸区中野5-19-1","kouzui":"○","gake":"×","takashio":"○","jishin":"×","tsunami":"×","kaji":"×","naisui":"×","kazan":"×"}}
,{"type":"Feature","geometry":{"type":"Point","coordinates":[132.578947,34.402781]},"properties":{"Name":"中野集会所","Jusho":"広島県広島市安芸区中野5-20-2","kouzui":"○","gake":"×","takashio":"○","jishin":"×","tsunami":"×","kaji":"×","naisui":"×","kazan":"×"}}
,{"type":"Feature","geometry":{"type":"Point","coordinates":[132.588286,34.420801]},"properties":{"Name":"瀬野川東中学校","Jusho":"広島県広島市安芸区中野7-29-1","kouzui":"○","gake":"×","takashio":"○","jishin":"×","tsunami":"×","kaji":"×","naisui":"×","kazan":"×"}}
,{"type":"Feature","geometry":{"type":"Point","coordinates":[132.566028,34.391189]},"properties":{"Name":"安芸区スポーツセンター","Jusho":"広島県広島市安芸区中野東2-3-1","kouzui":"○","gake":"○","takashio":"○","jishin":"×","tsunami":"×","kaji":"×","naisui":"×","kazan":"×"}}
,{"type":"Feature","geometry":{"type":"Point","coordinates":[132.553387,34.392655]},"properties":{"Name":"畑賀学区集会所","Jusho":"広島県広島市安芸区畑賀2-15-23","kouzui":"○","gake":"×","takashio":"○","jishin":"×","tsunami":"×","kaji":"×","naisui":"×","kazan":"×"}}
,{"type":"Feature","geometry":{"type":"Point","coordinates":[132.549026,34.394147]},"properties":{"Name":"畑賀児童館","Jusho":"広島県広島市安芸区畑賀3-23-12","kouzui":"○","gake":"○","takashio":"○","jishin":"×","tsunami":"×","kaji":"×","naisui":"×","kazan":"×"}}
,{"type":"Feature","geometry":{"type":"Point","coordinates":[132.550107,34.393913]},"properties":{"Name":"畑賀小学校","Jusho":"広島県広島市安芸区畑賀3-28-16","kouzui":"○","gake":"○","takashio":"○","jishin":"○","tsunami":"×","kaji":"×","naisui":"×","kazan":"×"}}
,{"type":"Feature","geometry":{"type":"Point","coordinates":[132.551037,34.394128]},"properties":{"Name":"畑賀福祉センター","Jusho":"広島県広島市安芸区畑賀3-30-14","kouzui":"○","gake":"○","takashio":"○","jishin":"×","tsunami":"×","kaji":"×","naisui":"×","kazan":"×"}}
,{"type":"Feature","geometry":{"type":"Point","coordinates":[132.548299,34.398065]},"properties":{"Name":"畑賀保育園","Jusho":"広島県広島市安芸区畑賀3-7-8","kouzui":"○","gake":"×","takashio":"○","jishin":"×","tsunami":"×","kaji":"×","naisui":"×","kazan":"×"}}
,{"type":"Feature","geometry":{"type":"Point","coordinates":[132.551495,34.396327]},"properties":{"Name":"畑賀公園","Jusho":"広島県広島市安芸区畑賀町","kouzui":"×","gake":"×","takashio":"×","jishin":"○","tsunami":"×","kaji":"×","naisui":"×","kazan":"×"}}
,{"type":"Feature","geometry":{"type":"Point","coordinates":[132.548489,34.400343]},"properties":{"Name":"奥畑集会所","Jusho":"広島県広島市安芸区畑賀町1004-5","kouzui":"○","gake":"×","takashio":"○","jishin":"×","tsunami":"×","kaji":"×","naisui":"×","kazan":"×"}}
,{"type":"Feature","geometry":{"type":"Point","coordinates":[132.52413,34.350871]},"properties":{"Name":"矢野新町公園","Jusho":"広島県広島市安芸区矢野新町1-1","kouzui":"×","gake":"×","takashio":"×","jishin":"○","tsunami":"×","kaji":"×","naisui":"×","kazan":"×"}}
,{"type":"Feature","geometry":{"type":"Point","coordinates":[132.52941,34.351294]},"properties":{"Name":"矢野西集会所","Jusho":"広島県広島市安芸区矢野西1-37-11","kouzui":"○","gake":"○","takashio":"×","jishin":"×","tsunami":"×","kaji":"×","naisui":"×","kazan":"×"}}
,{"type":"Feature","geometry":{"type":"Point","coordinates":[132.521257,34.350577]},"properties":{"Name":"県立安芸南高等学校","Jusho":"広島県広島市安芸区矢野西2-15-1","kouzui":"○","gake":"○","takashio":"×","jishin":"○","tsunami":"×","kaji":"○","naisui":"×","kazan":"×"}}
,{"type":"Feature","geometry":{"type":"Point","coordinates":[132.523754,34.345218]},"properties":{"Name":"大磯・星ヶ丘集会所","Jusho":"広島県広島市安芸区矢野西3-42-2","kouzui":"○","gake":"○","takashio":"○","jishin":"×","tsunami":"×","kaji":"×","naisui":"×","kazan":"×"}}
,{"type":"Feature","geometry":{"type":"Point","coordinates":[132.530946,34.350466]},"properties":{"Name":"矢野西保育園","Jusho":"広島県広島市安芸区矢野西4-11-12","kouzui":"○","gake":"○","takashio":"○","jishin":"×","tsunami":"×","kaji":"×","naisui":"×","kazan":"×"}}
,{"type":"Feature","geometry":{"type":"Point","coordinates":[132.533754,34.350136]},"properties":{"Name":"矢野西小学校","Jusho":"広島県広島市安芸区矢野西4-5-1","kouzui":"○","gake":"○","takashio":"○","jishin":"○","tsunami":"○","kaji":"×","naisui":"×","kazan":"×"}}
,{"type":"Feature","geometry":{"type":"Point","coordinates":[132.53312,34.349827]},"properties":{"Name":"矢野西児童館","Jusho":"広島県広島市安芸区矢野西4-5-1","kouzui":"○","gake":"×","takashio":"○","jishin":"×","tsunami":"×","kaji":"×","naisui":"×","kazan":"×"}}
,{"type":"Feature","geometry":{"type":"Point","coordinates":[132.537316,34.350109]},"properties":{"Name":"矢野公民館","Jusho":"広島県広島市安芸区矢野西5-24-2","kouzui":"○","gake":"○","takashio":"○","jishin":"×","tsunami":"×","kaji":"×","naisui":"×","kazan":"×"}}
,{"type":"Feature","geometry":{"type":"Point","coordinates":[132.536534,34.34747]},"properties":{"Name":"矢野児童館","Jusho":"広島県広島市安芸区矢野西6-11-1","kouzui":"○","gake":"○","takashio":"○","jishin":"×","tsunami":"×","kaji":"×","naisui":"×","kazan":"×"}}
,{"type":"Feature","geometry":{"type":"Point","coordinates":[132.535236,34.347883]},"properties":{"Name":"矢野小学校","Jusho":"広島県広島市安芸区矢野西6-11-1","kouzui":"○","gake":"○","takashio":"○","jishin":"○","tsunami":"○","kaji":"×","naisui":"×","kazan":"×"}}
,{"type":"Feature","geometry":{"type":"Point","coordinates":[132.537227,34.347848]},"properties":{"Name":"矢野福祉センター","Jusho":"広島県広島市安芸区矢野西6-12-1","kouzui":"○","gake":"×","takashio":"○","jishin":"×","tsunami":"×","kaji":"×","naisui":"×","kazan":"×"}}
,{"type":"Feature","geometry":{"type":"Point","coordinates":[132.537012,34.347816]},"properties":{"Name":"矢野幼稚園","Jusho":"広島県広島市安芸区矢野西6-12-2","kouzui":"○","gake":"○","takashio":"○","jishin":"×","tsunami":"×","kaji":"×","naisui":"×","kazan":"×"}}
,{"type":"Feature","geometry":{"type":"Point","coordinates":[132.536836,34.344616]},"properties":{"Name":"矢野上集会所","Jusho":"広島県広島市安芸区矢野西7-6-26","kouzui":"○","gake":"×","takashio":"○","jishin":"×","tsunami":"×","kaji":"×","naisui":"×","kazan":"×"}}
,{"type":"Feature","geometry":{"type":"Point","coordinates":[132.54326,34.319718]},"properties":{"Name":"絵下山公園","Jusho":"広島県広島市安芸区矢野町","kouzui":"×","gake":"×","takashio":"×","jishin":"○","tsunami":"×","kaji":"×","naisui":"×","kazan":"×"}}
,{"type":"Feature","geometry":{"type":"Point","coordinates":[132.550821,34.320862]},"properties":{"Name":"寺屋敷集会所","Jusho":"広島県広島市安芸区矢野町字寺屋敷740-3","kouzui":"○","gake":"○","takashio":"○","jishin":"×","tsunami":"×","kaji":"×","naisui":"×","kazan":"×"}}
,{"type":"Feature","geometry":{"type":"Point","coordinates":[132.539947,34.359133]},"properties":{"Name":"矢野中学校","Jusho":"広島県広島市安芸区矢野東2-16-1","kouzui":"○","gake":"×","takashio":"○","jishin":"○","tsunami":"○","kaji":"×","naisui":"×","kazan":"×"}}
,{"type":"Feature","geometry":{"type":"Point","coordinates":[132.542873,34.356704]},"properties":{"Name":"月が丘公園","Jusho":"広島県広島市安芸区矢野東3-16","kouzui":"×","gake":"×","takashio":"×","jishin":"○","tsunami":"○","kaji":"×","naisui":"×","kazan":"×"}}
,{"type":"Feature","geometry":{"type":"Point","coordinates":[132.535525,34.354092]},"properties":{"Name":"矢野東集会所","Jusho":"広島県広島市安芸区矢野東5-2-29","kouzui":"○","gake":"○","takashio":"○","jishin":"×","tsunami":"×","kaji":"×","naisui":"×","kazan":"×"}}
,{"type":"Feature","geometry":{"type":"Point","coordinates":[132.537406,34.352527]},"properties":{"Name":"矢野中央保育園","Jusho":"広島県広島市安芸区矢野東5-9-2","kouzui":"○","gake":"○","takashio":"○","jishin":"×","tsunami":"×","kaji":"×","naisui":"×","kazan":"×"}}
,{"type":"Feature","geometry":{"type":"Point","coordinates":[132.539978,34.346013]},"properties":{"Name":"矢野東保育園","Jusho":"広島県広島市安芸区矢野東6-19-14","kouzui":"○","gake":"×","takashio":"○","jishin":"×","tsunami":"×","kaji":"×","naisui":"×","kazan":"×"}}
,{"type":"Feature","geometry":{"type":"Point","coordinates":[132.53122,34.340325]},"properties":{"Name":"安芸矢野ニュータウン中央公園","Jusho":"広島県広島市安芸区矢野南2-20","kouzui":"×","gake":"×","takashio":"×","jishin":"○","tsunami":"○","kaji":"×","naisui":"×","kazan":"×"}}
,{"type":"Feature","geometry":{"type":"Point","coordinates":[132.530445,34.339597]},"properties":{"Name":"矢野南集会所","Jusho":"広島県広島市安芸区矢野南2-20-37","kouzui":"○","gake":"×","takashio":"○","jishin":"×","tsunami":"×","kaji":"×","naisui":"×","kazan":"×"}}
,{"type":"Feature","geometry":{"type":"Point","coordinates":[132.534452,34.337944]},"properties":{"Name":"矢野南小学校","Jusho":"広島県広島市安芸区矢野南4-17-1","kouzui":"○","gake":"○","takashio":"○","jishin":"○","tsunami":"○","kaji":"×","naisui":"×","kazan":"×"}}
,{"type":"Feature","geometry":{"type":"Point","coordinates":[132.530617,34.339396]},"properties":{"Name":"矢野南児童館","Jusho":"広島県広島市安芸区矢野南4-9-22","kouzui":"○","gake":"×","takashio":"○","jishin":"×","tsunami":"×","kaji":"×","naisui":"×","kazan":"×"}}
,{"type":"Feature","geometry":{"type":"Point","coordinates":[132.458714,34.474221]},"properties":{"Name":"安東小学校","Jusho":"広島県広島市安佐南区安東1-28-1","kouzui":"○","gake":"○","takashio":"○","jishin":"○","tsunami":"×","kaji":"×","naisui":"×","kazan":"×"}}
,{"type":"Feature","geometry":{"type":"Point","coordinates":[132.456107,34.472732]},"properties":{"Name":"安東保育園","Jusho":"広島県広島市安佐南区安東2-1-12","kouzui":"○","gake":"○","takashio":"○","jishin":"×","tsunami":"×","kaji":"×","naisui":"×","kazan":"×"}}
,{"type":"Feature","geometry":{"type":"Point","coordinates":[132.456571,34.474096]},"properties":{"Name":"安東公民館","Jusho":"広島県広島市安佐南区安東2-16-42","kouzui":"○","gake":"○","takashio":"○","jishin":"×","tsunami":"×","kaji":"×","naisui":"×","kazan":"×"}}
,{"type":"Feature","geometry":{"type":"Point","coordinates":[132.454376,34.475884]},"properties":{"Name":"鯛之迫集会所","Jusho":"広島県広島市安佐南区安東2-20-47","kouzui":"○","gake":"○","takashio":"○","jishin":"×","tsunami":"×","kaji":"×","naisui":"×","kazan":"×"}}
,{"type":"Feature","geometry":{"type":"Point","coordinates":[132.459393,34.476026]},"properties":{"Name":"安東児童館","Jusho":"広島県広島市安佐南区安東3-1-1","kouzui":"○","gake":"×","takashio":"○","jishin":"×","tsunami":"×","kaji":"×","naisui":"×","kazan":"×"}}
,{"type":"Feature","geometry":{"type":"Point","coordinates":[132.452306,34.479458]},"properties":{"Name":"安田女子大学","Jusho":"広島県広島市安佐南区安東6-13-1","kouzui":"○","gake":"○","takashio":"○","jishin":"○","tsunami":"×","kaji":"○","naisui":"×","kazan":"×"}}
,{"type":"Feature","geometry":{"type":"Point","coordinates":[132.467156,34.443531]},"properties":{"Name":"祇園保育園","Jusho":"広島県広島市安佐南区祇園2-17-13","kouzui":"○","gake":"○","takashio":"○","jishin":"×","tsunami":"×","kaji":"×","naisui":"×","kazan":"×"}}
,{"type":"Feature","geometry":{"type":"Point","coordinates":[132.463104,34.442268]},"properties":{"Name":"祇園児童館","Jusho":"広島県広島市安佐南区祇園3-1-22","kouzui":"○","gake":"○","takashio":"○","jishin":"×","tsunami":"×","kaji":"×","naisui":"×","kazan":"×"}}
,{"type":"Feature","geometry":{"type":"Point","coordinates":[132.464046,34.442695]},"properties":{"Name":"祇園小学校","Jusho":"広島県広島市安佐南区祇園3-1-27","kouzui":"○","gake":"○","takashio":"○","jishin":"○","tsunami":"×","kaji":"×","naisui":"×","kazan":"×"}}
,{"type":"Feature","geometry":{"type":"Point","coordinates":[132.456531,34.448489]},"properties":{"Name":"広島経済大学","Jusho":"広島県広島市安佐南区祇園5-37-1","kouzui":"○","gake":"×","takashio":"○","jishin":"×","tsunami":"×","kaji":"○","naisui":"×","kazan":"×"}}
,{"type":"Feature","geometry":{"type":"Point","coordinates":[132.455645,34.445026]},"properties":{"Name":"祇園中学校","Jusho":"広島県広島市安佐南区祇園5-39-1","kouzui":"○","gake":"○","takashio":"○","jishin":"×","tsunami":"×","kaji":"×","naisui":"×","kazan":"×"}}
,{"type":"Feature","geometry":{"type":"Point","coordinates":[132.465326,34.444191]},"properties":{"Name":"祇園集会所","Jusho":"広島県広島市安佐南区祇園6-22-2","kouzui":"○","gake":"○","takashio":"○","jishin":"×","tsunami":"×","kaji":"×","naisui":"×","kazan":"×"}}
,{"type":"Feature","geometry":{"type":"Point","coordinates":[132.471761,34.454645]},"properties":{"Name":"古市小学校","Jusho":"広島県広島市安佐南区古市2-21-1","kouzui":"○","gake":"○","takashio":"○","jishin":"○","tsunami":"×","kaji":"×","naisui":"×","kazan":"×"}}
,{"type":"Feature","geometry":{"type":"Point","coordinates":[132.472114,34.454833]},"properties":{"Name":"古市保育園","Jusho":"広島県広島市安佐南区古市2-21-3","kouzui":"○","gake":"○","takashio":"○","jishin":"×","tsunami":"×","kaji":"×","naisui":"×","kazan":"×"}}
,{"type":"Feature","geometry":{"type":"Point","coordinates":[132.47436,34.457565]},"properties":{"Name":"古市集会所","Jusho":"広島県広島市安佐南区古市2-28-28","kouzui":"○","gake":"○","takashio":"○","jishin":"×","tsunami":"×","kaji":"×","naisui":"×","kazan":"×"}}
,{"type":"Feature","geometry":{"type":"Point","coordinates":[132.469793,34.456325]},"properties":{"Name":"古市公民館","Jusho":"広島県広島市安佐南区古市3-24-8","kouzui":"○","gake":"○","takashio":"○","jishin":"×","tsunami":"×","kaji":"×","naisui":"×","kazan":"×"}}
,{"type":"Feature","geometry":{"type":"Point","coordinates":[132.436614,34.471387]},"properties":{"Name":"安西集会所","Jusho":"広島県広島市安佐南区高取南2-1-18","kouzui":"○","gake":"○","takashio":"○","jishin":"×","tsunami":"×","kaji":"×","naisui":"×","kazan":"×"}}
,{"type":"Feature","geometry":{"type":"Point","coordinates":[132.434049,34.468355]},"properties":{"Name":"安西幼稚園","Jusho":"広島県広島市安佐南区高取南2-17-1","kouzui":"○","gake":"○","takashio":"○","jishin":"×","tsunami":"×","kaji":"×","naisui":"×","kazan":"×"}}
,{"type":"Feature","geometry":{"type":"Point","coordinates":[132.432662,34.467735]},"properties":{"Name":"安西小学校","Jusho":"広島県広島市安佐南区高取南2-18-1","kouzui":"○","gake":"×","takashio":"○","jishin":"○","tsunami":"×","kaji":"×","naisui":"×","kazan":"×"}}
,{"type":"Feature","geometry":{"type":"Point","coordinates":[132.432759,34.468371]},"properties":{"Name":"安西児童館","Jusho":"広島県広島市安佐南区高取南2-18-1","kouzui":"○","gake":"×","takashio":"○","jishin":"×","tsunami":"×","kaji":"×","naisui":"×","kazan":"×"}}
,{"type":"Feature","geometry":{"type":"Point","coordinates":[132.431344,34.464979]},"properties":{"Name":"安西中学校","Jusho":"広島県広島市安佐南区高取南3-27-1","kouzui":"○","gake":"×","takashio":"○","jishin":"×","tsunami":"×","kaji":"×","naisui":"×","kazan":"×"}}
,{"type":"Feature","geometry":{"type":"Point","coordinates":[132.436156,34.479688]},"properties":{"Name":"安北児童館","Jusho":"広島県広島市安佐南区高取北2-30-1","kouzui":"○","gake":"×","takashio":"○","jishin":"×","tsunami":"×","kaji":"×","naisui":"×","kazan":"×"}}
,{"type":"Feature","geometry":{"type":"Point","coordinates":[132.435577,34.480491]},"properties":{"Name":"安北小学校","Jusho":"広島県広島市安佐南区高取北2-30-1","kouzui":"○","gake":"○","takashio":"○","jishin":"○","tsunami":"×","kaji":"×","naisui":"×","kazan":"×"}}
,{"type":"Feature","geometry":{"type":"Point","coordinates":[132.43402,34.480203]},"properties":{"Name":"高取北中学校","Jusho":"広島県広島市安佐南区高取北3-19-1","kouzui":"○","gake":"×","takashio":"○","jishin":"×","tsunami":"×","kaji":"×","naisui":"×","kazan":"×"}}
,{"type":"Feature","geometry":{"type":"Point","coordinates":[132.434576,34.47768]},"properties":{"Name":"高取公園","Jusho":"広島県広島市安佐南区高取北4-17","kouzui":"×","gake":"×","takashio":"×","jishin":"○","tsunami":"×","kaji":"×","naisui":"×","kazan":"×"}}
,{"type":"Feature","geometry":{"type":"Point","coordinates":[132.434076,34.475215]},"properties":{"Name":"高長集会所","Jusho":"広島県広島市安佐南区高取北4-4-14","kouzui":"○","gake":"×","takashio":"○","jishin":"×","tsunami":"×","kaji":"×","naisui":"×","kazan":"×"}}
,{"type":"Feature","geometry":{"type":"Point","coordinates":[132.452935,34.43836]},"properties":{"Name":"山本小学校","Jusho":"広島県広島市安佐南区山本3-13-1","kouzui":"○","gake":"○","takashio":"○","jishin":"○","tsunami":"×","kaji":"×","naisui":"×","kazan":"×"}}
,{"type":"Feature","geometry":{"type":"Point","coordinates":[132.453205,34.437853]},"properties":{"Name":"山本児童館","Jusho":"広島県広島市安佐南区山本3-13-2","kouzui":"○","gake":"○","takashio":"○","jishin":"×","tsunami":"×","kaji":"×","naisui":"×","kazan":"×"}}
,{"type":"Feature","geometry":{"type":"Point","coordinates":[132.449818,34.437737]},"properties":{"Name":"山本幼稚園","Jusho":"広島県広島市安佐南区山本4-12-4","kouzui":"○","gake":"○","takashio":"○","jishin":"×","tsunami":"×","kaji":"×","naisui":"×","kazan":"×"}}
,{"type":"Feature","geometry":{"type":"Point","coordinates":[132.449493,34.43785]},"properties":{"Name":"山本保育園","Jusho":"広島県広島市安佐南区山本4-12-4","kouzui":"○","gake":"○","takashio":"○","jishin":"×","tsunami":"×","kaji":"×","naisui":"×","kazan":"×"}}
,{"type":"Feature","geometry":{"type":"Point","coordinates":[132.450203,34.438648]},"properties":{"Name":"山本集会所","Jusho":"広島県広島市安佐南区山本4-9-3-4","kouzui":"○","gake":"○","takashio":"○","jishin":"×","tsunami":"×","kaji":"×","naisui":"×","kazan":"×"}}
,{"type":"Feature","geometry":{"type":"Point","coordinates":[132.434302,34.44143]},"properties":{"Name":"春日野小学校","Jusho":"広島県広島市安佐南区山本新町2-18-1","kouzui":"○","gake":"○","takashio":"○","jishin":"○","tsunami":"×","kaji":"×","naisui":"×","kazan":"×"}}
,{"type":"Feature","geometry":{"type":"Point","coordinates":[132.438173,34.444764]},"properties":{"Name":"春日野中央公園","Jusho":"広島県広島市安佐南区山本新町2-4","kouzui":"×","gake":"×","takashio":"×","jishin":"○","tsunami":"×","kaji":"×","naisui":"×","kazan":"×"}}
,{"type":"Feature","geometry":{"type":"Point","coordinates":[132.439477,34.444911]},"properties":{"Name":"春日野集会所","Jusho":"広島県広島市安佐南区山本新町3-23-34","kouzui":"○","gake":"○","takashio":"○","jishin":"×","tsunami":"×","kaji":"×","naisui":"×","kazan":"×"}}
,{"type":"Feature","geometry":{"type":"Point","coordinates":[132.356909,34.484209]},"properties":{"Name":"戸山公民館","Jusho":"広島県広島市安佐南区沼田町阿戸269-3","kouzui":"○","gake":"×","takashio":"○","jishin":"×","tsunami":"×","kaji":"×","naisui":"×","kazan":"×"}}
,{"type":"Feature","geometry":{"type":"Point","coordinates":[132.357084,34.485293]},"properties":{"Name":"戸山集会所","Jusho":"広島県広島市安佐南区沼田町阿戸343-1","kouzui":"○","gake":"×","takashio":"○","jishin":"×","tsunami":"×","kaji":"×","naisui":"×","kazan":"×"}}
,{"type":"Feature","geometry":{"type":"Point","coordinates":[132.354073,34.482796]},"properties":{"Name":"戸山小学校","Jusho":"広島県広島市安佐南区沼田町阿戸3722","kouzui":"○","gake":"×","takashio":"○","jishin":"○","tsunami":"×","kaji":"×","naisui":"×","kazan":"×"}}
,{"type":"Feature","geometry":{"type":"Point","coordinates":[132.354064,34.48335]},"properties":{"Name":"戸山中学校","Jusho":"広島県広島市安佐南区沼田町阿戸3725","kouzui":"○","gake":"×","takashio":"○","jishin":"×","tsunami":"×","kaji":"×","naisui":"×","kazan":"×"}}
,{"type":"Feature","geometry":{"type":"Point","coordinates":[132.370431,34.496674]},"properties":{"Name":"阿戸集会所","Jusho":"広島県広島市安佐南区沼田町大字阿戸1416-1","kouzui":"○","gake":"○","takashio":"○","jishin":"×","tsunami":"×","kaji":"×","naisui":"×","kazan":"×"}}
,{"type":"Feature","geometry":{"type":"Point","coordinates":[132.365917,34.491826]},"properties":{"Name":"慈光保育園","Jusho":"広島県広島市安佐南区沼田町大字阿戸3135-1","kouzui":"○","gake":"○","takashio":"○","jishin":"×","tsunami":"×","kaji":"×","naisui":"×","kazan":"×"}}
,{"type":"Feature","geometry":{"type":"Point","coordinates":[132.334925,34.461945]},"properties":{"Name":"上吉山集会所","Jusho":"広島県広島市安佐南区沼田町大字吉山1393-1","kouzui":"○","gake":"×","takashio":"○","jishin":"×","tsunami":"×","kaji":"×","naisui":"×","kazan":"×"}}
,{"type":"Feature","geometry":{"type":"Point","coordinates":[132.348532,34.475265]},"properties":{"Name":"下吉山集会所","Jusho":"広島県広島市安佐南区沼田町大字吉山2877-6","kouzui":"○","gake":"○","takashio":"○","jishin":"×","tsunami":"×","kaji":"×","naisui":"×","kazan":"×"}}
,{"type":"Feature","geometry":{"type":"Point","coordinates":[132.446301,34.473727]},"properties":{"Name":"安公民館","Jusho":"広島県広島市安佐南区上安2-2-46","kouzui":"○","gake":"○","takashio":"○","jishin":"×","tsunami":"×","kaji":"×","naisui":"×","kazan":"×"}}
,{"type":"Feature","geometry":{"type":"Point","coordinates":[132.444922,34.475547]},"properties":{"Name":"上安保育園","Jusho":"広島県広島市安佐南区上安2-23-24-12","kouzui":"○","gake":"○","takashio":"○","jishin":"×","tsunami":"×","kaji":"×","naisui":"×","kazan":"×"}}
,{"type":"Feature","geometry":{"type":"Point","coordinates":[132.442865,34.475275]},"properties":{"Name":"安幼稚園","Jusho":"広島県広島市安佐南区上安2-26-18","kouzui":"○","gake":"×","takashio":"○","jishin":"×","tsunami":"×","kaji":"×","naisui":"×","kazan":"×"}}
,{"type":"Feature","geometry":{"type":"Point","coordinates":[132.442972,34.473088]},"properties":{"Name":"安小学校","Jusho":"広島県広島市安佐南区上安2-7-56","kouzui":"○","gake":"○","takashio":"○","jishin":"○","tsunami":"×","kaji":"×","naisui":"×","kazan":"×"}}
,{"type":"Feature","geometry":{"type":"Point","coordinates":[132.448178,34.48081]},"properties":{"Name":"上安集会所","Jusho":"広島県広島市安佐南区上安4-4-1","kouzui":"○","gake":"×","takashio":"○","jishin":"×","tsunami":"×","kaji":"×","naisui":"×","kazan":"×"}}
,{"type":"Feature","geometry":{"type":"Point","coordinates":[132.447667,34.485458]},"properties":{"Name":"上安小学校","Jusho":"広島県広島市安佐南区上安5-21-52","kouzui":"○","gake":"×","takashio":"○","jishin":"○","tsunami":"×","kaji":"×","naisui":"×","kazan":"×"}}
,{"type":"Feature","geometry":{"type":"Point","coordinates":[132.449668,34.484512]},"properties":{"Name":"上安児童館","Jusho":"広島県広島市安佐南区上安5-7-21","kouzui":"○","gake":"○","takashio":"○","jishin":"×","tsunami":"×","kaji":"×","naisui":"×","kazan":"×"}}
,{"type":"Feature","geometry":{"type":"Point","coordinates":[132.462407,34.434452]},"properties":{"Name":"祇園福祉センター","Jusho":"広島県広島市安佐南区西原1-13-26","kouzui":"○","gake":"○","takashio":"○","jishin":"×","tsunami":"×","kaji":"×","naisui":"×","kazan":"×"}}
,{"type":"Feature","geometry":{"type":"Point","coordinates":[132.462394,34.434668]},"properties":{"Name":"祇園公民館","Jusho":"広島県広島市安佐南区西原1-13-26","kouzui":"○","gake":"○","takashio":"○","jishin":"×","tsunami":"×","kaji":"×","naisui":"×","kazan":"×"}}
,{"type":"Feature","geometry":{"type":"Point","coordinates":[132.466919,34.431489]},"properties":{"Name":"原南小学校","Jusho":"広島県広島市安佐南区西原2-19-23","kouzui":"○","gake":"○","takashio":"○","jishin":"○","tsunami":"×","kaji":"×","naisui":"×","kazan":"×"}}
,{"type":"Feature","geometry":{"type":"Point","coordinates":[132.466015,34.431237]},"properties":{"Name":"原南集会所","Jusho":"広島県広島市安佐南区西原2-26-3","kouzui":"○","gake":"○","takashio":"○","jishin":"×","tsunami":"×","kaji":"×","naisui":"×","kazan":"×"}}
,{"type":"Feature","geometry":{"type":"Point","coordinates":[132.473253,34.435912]},"properties":{"Name":"原保育園","Jusho":"広島県広島市安佐南区西原3-9-19","kouzui":"×","gake":"○","takashio":"○","jishin":"×","tsunami":"×","kaji":"×","naisui":"×","kazan":"×"}}
,{"type":"Feature","geometry":{"type":"Point","coordinates":[132.470398,34.439383]},"properties":{"Name":"原小学校","Jusho":"広島県広島市安佐南区西原6-29-6","kouzui":"○","gake":"○","takashio":"○","jishin":"○","tsunami":"×","kaji":"×","naisui":"×","kazan":"×"}}
,{"type":"Feature","geometry":{"type":"Point","coordinates":[132.474487,34.437419]},"properties":{"Name":"祇園東中学校・太田川高水敷","Jusho":"広島県広島市安佐南区西原7-16","kouzui":"×","gake":"×","takashio":"×","jishin":"○","tsunami":"×","kaji":"○","naisui":"×","kazan":"×"}}
,{"type":"Feature","geometry":{"type":"Point","coordinates":[132.475128,34.439047]},"properties":{"Name":"祇園東中学校","Jusho":"広島県広島市安佐南区西原7-16-1","kouzui":"○","gake":"○","takashio":"○","jishin":"×","tsunami":"×","kaji":"×","naisui":"×","kazan":"×"}}
,{"type":"Feature","geometry":{"type":"Point","coordinates":[132.472586,34.443959]},"properties":{"Name":"原集会所","Jusho":"広島県広島市安佐南区西原8-17-8","kouzui":"○","gake":"○","takashio":"○","jishin":"×","tsunami":"×","kaji":"×","naisui":"×","kazan":"×"}}
,{"type":"Feature","geometry":{"type":"Point","coordinates":[132.486175,34.462811]},"properties":{"Name":"川内集会所","Jusho":"広島県広島市安佐南区川内3-8-25","kouzui":"×","gake":"○","takashio":"○","jishin":"×","tsunami":"×","kaji":"×","naisui":"×","kazan":"×"}}
,{"type":"Feature","geometry":{"type":"Point","coordinates":[132.484753,34.464729]},"properties":{"Name":"川内児童館","Jusho":"広島県広島市安佐南区川内5-39-32","kouzui":"×","gake":"○","takashio":"○","jishin":"×","tsunami":"×","kaji":"×","naisui":"×","kazan":"×"}}
,{"type":"Feature","geometry":{"type":"Point","coordinates":[132.486571,34.464566]},"properties":{"Name":"川内小学校","Jusho":"広島県広島市安佐南区川内5-40-1","kouzui":"○","gake":"○","takashio":"○","jishin":"○","tsunami":"×","kaji":"×","naisui":"×","kazan":"×"}}
,{"type":"Feature","geometry":{"type":"Point","coordinates":[132.485661,34.464233]},"properties":{"Name":"川内幼稚園","Jusho":"広島県広島市安佐南区川内5-40-2","kouzui":"×","gake":"○","takashio":"○","jishin":"×","tsunami":"×","kaji":"×","naisui":"×","kazan":"×"}}
,{"type":"Feature","geometry":{"type":"Point","coordinates":[132.490848,34.473637]},"properties":{"Name":"城南中学校","Jusho":"広島県広島市安佐南区川内6-2320","kouzui":"○","gake":"○","takashio":"○","jishin":"×","tsunami":"×","kaji":"×","naisui":"×","kazan":"×"}}
,{"type":"Feature","geometry":{"type":"Point","coordinates":[132.488206,34.468951]},"properties":{"Name":"川内保育園","Jusho":"広島県広島市安佐南区川内6-36-31","kouzui":"×","gake":"○","takashio":"○","jishin":"×","tsunami":"×","kaji":"×","naisui":"×","kazan":"×"}}
,{"type":"Feature","geometry":{"type":"Point","coordinates":[132.490468,34.474148]},"properties":{"Name":"城南中学校・川内第二公園","Jusho":"広島県広島市安佐南区川内6-8","kouzui":"×","gake":"×","takashio":"×","jishin":"○","tsunami":"×","kaji":"○","naisui":"×","kazan":"×"}}
,{"type":"Feature","geometry":{"type":"Point","coordinates":[132.451009,34.473222]},"properties":{"Name":"相田集会所","Jusho":"広島県広島市安佐南区相田2-4-37","kouzui":"○","gake":"○","takashio":"○","jishin":"×","tsunami":"×","kaji":"×","naisui":"×","kazan":"×"}}
,{"type":"Feature","geometry":{"type":"Point","coordinates":[132.446006,34.471255]},"properties":{"Name":"安集会所","Jusho":"広島県広島市安佐南区相田4-3-32-9","kouzui":"○","gake":"○","takashio":"○","jishin":"×","tsunami":"×","kaji":"×","naisui":"×","kazan":"×"}}
,{"type":"Feature","geometry":{"type":"Point","coordinates":[132.462972,34.454672]},"properties":{"Name":"大町児童館","Jusho":"広島県広島市安佐南区大町西1-16-12","kouzui":"○","gake":"×","takashio":"○","jishin":"×","tsunami":"×","kaji":"×","naisui":"×","kazan":"×"}}
,{"type":"Feature","geometry":{"type":"Point","coordinates":[132.462556,34.457477]},"properties":{"Name":"大町小学校","Jusho":"広島県広島市安佐南区大町西2-24-1","kouzui":"○","gake":"○","takashio":"○","jishin":"○","tsunami":"×","kaji":"×","naisui":"×","kazan":"×"}}
,{"type":"Feature","geometry":{"type":"Point","coordinates":[132.462851,34.456639]},"properties":{"Name":"大町幼稚園","Jusho":"広島県広島市安佐南区大町西2-26-1","kouzui":"○","gake":"×","takashio":"○","jishin":"×","tsunami":"×","kaji":"×","naisui":"×","kazan":"×"}}
,{"type":"Feature","geometry":{"type":"Point","coordinates":[132.459423,34.458007]},"properties":{"Name":"安佐南中学校","Jusho":"広島県広島市安佐南区大町西2-35-1","kouzui":"○","gake":"×","takashio":"○","jishin":"×","tsunami":"×","kaji":"×","naisui":"×","kazan":"×"}}
,{"type":"Feature","geometry":{"type":"Point","coordinates":[132.467429,34.46087]},"properties":{"Name":"大町集会所","Jusho":"広島県広島市安佐南区大町東3-7-25-6","kouzui":"○","gake":"○","takashio":"○","jishin":"×","tsunami":"×","kaji":"×","naisui":"×","kazan":"×"}}
,{"type":"Feature","geometry":{"type":"Point","coordinates":[132.466679,34.460691]},"properties":{"Name":"大町保育園","Jusho":"広島県広島市安佐南区大町東3-8-6","kouzui":"○","gake":"○","takashio":"○","jishin":"×","tsunami":"×","kaji":"×","naisui":"×","kazan":"×"}}
,{"type":"Feature","geometry":{"type":"Point","coordinates":[132.466006,34.468581]},"properties":{"Name":"安佐中学校","Jusho":"広島県広島市安佐南区大町東4-1-6","kouzui":"○","gake":"○","takashio":"○","jishin":"×","tsunami":"×","kaji":"×","naisui":"×","kazan":"×"}}
,{"type":"Feature","geometry":{"type":"Point","coordinates":[132.392379,34.449142]},"properties":{"Name":"大塚小学校","Jusho":"広島県広島市安佐南区大塚西6-1-1","kouzui":"○","gake":"○","takashio":"○","jishin":"○","tsunami":"×","kaji":"×","naisui":"×","kazan":"×"}}
,{"type":"Feature","geometry":{"type":"Point","coordinates":[132.392901,34.448143]},"properties":{"Name":"大塚児童館","Jusho":"広島県広島市安佐南区大塚西6-1-2","kouzui":"○","gake":"×","takashio":"○","jishin":"×","tsunami":"×","kaji":"×","naisui":"×","kazan":"×"}}
,{"type":"Feature","geometry":{"type":"Point","coordinates":[132.38951,34.449082]},"properties":{"Name":"大塚中学校","Jusho":"広島県広島市安佐南区大塚西6-3-1","kouzui":"○","gake":"○","takashio":"○","jishin":"×","tsunami":"×","kaji":"×","naisui":"×","kazan":"×"}}
,{"type":"Feature","geometry":{"type":"Point","coordinates":[132.390243,34.449595]},"properties":{"Name":"大塚公民館","Jusho":"広島県広島市安佐南区大塚西6-3-2","kouzui":"○","gake":"○","takashio":"○","jishin":"×","tsunami":"×","kaji":"×","naisui":"×","kazan":"×"}}
,{"type":"Feature","geometry":{"type":"Point","coordinates":[132.392739,34.453541]},"properties":{"Name":"大塚学区集会所","Jusho":"広島県広島市安佐南区大塚西7-26-19","kouzui":"○","gake":"○","takashio":"○","jishin":"×","tsunami":"×","kaji":"×","naisui":"×","kazan":"×"}}
,{"type":"Feature","geometry":{"type":"Point","coordinates":[132.391713,34.453979]},"properties":{"Name":"Ａシティ中央公園","Jusho":"広島県広島市安佐南区大塚西7-41","kouzui":"×","gake":"×","takashio":"×","jishin":"○","tsunami":"×","kaji":"×","naisui":"×","kazan":"×"}}
,{"type":"Feature","geometry":{"type":"Point","coordinates":[132.405054,34.434435]},"properties":{"Name":"広島修道大学","Jusho":"広島県広島市安佐南区大塚東1-1-1","kouzui":"○","gake":"○","takashio":"○","jishin":"○","tsunami":"×","kaji":"○","naisui":"×","kazan":"×"}}
,{"type":"Feature","geometry":{"type":"Point","coordinates":[132.413327,34.436097]},"properties":{"Name":"大塚学びの丘公園","Jusho":"広島県広島市安佐南区大塚東3-2","kouzui":"×","gake":"×","takashio":"×","jishin":"○","tsunami":"×","kaji":"×","naisui":"×","kazan":"×"}}
,{"type":"Feature","geometry":{"type":"Point","coordinates":[132.413784,34.439118]},"properties":{"Name":"広島市立大学","Jusho":"広島県広島市安佐南区大塚東3-4-1","kouzui":"○","gake":"○","takashio":"○","jishin":"×","tsunami":"×","kaji":"×","naisui":"×","kazan":"×"}}
,{"type":"Feature","geometry":{"type":"Point","coordinates":[132.420367,34.438105]},"properties":{"Name":"西風新都東公園","Jusho":"広島県広島市安佐南区大塚東3-6","kouzui":"×","gake":"×","takashio":"×","jishin":"○","tsunami":"×","kaji":"×","naisui":"×","kazan":"×"}}
,{"type":"Feature","geometry":{"type":"Point","coordinates":[132.474487,34.451634]},"properties":{"Name":"安佐南区民文化センター（マエダハウジング安佐南区民文化センター）","Jusho":"広島県広島市安佐南区中筋1-22-17","kouzui":"○","gake":"○","takashio":"○","jishin":"×","tsunami":"×","kaji":"×","naisui":"×","kazan":"×"}}
,{"type":"Feature","geometry":{"type":"Point","coordinates":[132.479257,34.449226]},"properties":{"Name":"中筋児童館","Jusho":"広島県広島市安佐南区中筋2-15-16","kouzui":"×","gake":"○","takashio":"○","jishin":"×","tsunami":"×","kaji":"×","naisui":"×","kazan":"×"}}
,{"type":"Feature","geometry":{"type":"Point","coordinates":[132.479233,34.44943]},"properties":{"Name":"中筋小学校","Jusho":"広島県広島市安佐南区中筋2-15-5","kouzui":"○","gake":"○","takashio":"○","jishin":"○","tsunami":"×","kaji":"×","naisui":"×","kazan":"×"}}
,{"type":"Feature","geometry":{"type":"Point","coordinates":[132.477471,34.450549]},"properties":{"Name":"ＳｕｎＳｕｎ保育園","Jusho":"広島県広島市安佐南区中筋2-8-1","kouzui":"○","gake":"○","takashio":"○","jishin":"×","tsunami":"×","kaji":"×","naisui":"×","kazan":"×"}}
,{"type":"Feature","geometry":{"type":"Point","coordinates":[132.480922,34.452013]},"properties":{"Name":"中筋保育園","Jusho":"広島県広島市安佐南区中筋3-20-6","kouzui":"×","gake":"○","takashio":"○","jishin":"×","tsunami":"×","kaji":"×","naisui":"×","kazan":"×"}}
,{"type":"Feature","geometry":{"type":"Point","coordinates":[132.478947,34.451027]},"properties":{"Name":"中筋幼稚園","Jusho":"広島県広島市安佐南区中筋3-31-21","kouzui":"×","gake":"○","takashio":"○","jishin":"×","tsunami":"×","kaji":"×","naisui":"×","kazan":"×"}}
,{"type":"Feature","geometry":{"type":"Point","coordinates":[132.470599,34.456593]},"properties":{"Name":"古市児童館","Jusho":"広島県広島市安佐南区中須1-38-13","kouzui":"○","gake":"○","takashio":"○","jishin":"×","tsunami":"×","kaji":"×","naisui":"×","kazan":"×"}}
,{"type":"Feature","geometry":{"type":"Point","coordinates":[132.428433,34.470791]},"properties":{"Name":"交通科学館（ヌマジ交通ミュージアム）","Jusho":"広島県広島市安佐南区長楽寺2-12-2","kouzui":"○","gake":"×","takashio":"○","jishin":"×","tsunami":"×","kaji":"×","naisui":"×","kazan":"×"}}
,{"type":"Feature","geometry":{"type":"Point","coordinates":[132.460047,34.429769]},"properties":{"Name":"長束幼稚園","Jusho":"広島県広島市安佐南区長束2-5-37","kouzui":"○","gake":"○","takashio":"○","jishin":"×","tsunami":"×","kaji":"×","naisui":"×","kazan":"×"}}
,{"type":"Feature","geometry":{"type":"Point","coordinates":[132.454713,34.427057]},"properties":{"Name":"長束小学校","Jusho":"広島県広島市安佐南区長束4-15-1","kouzui":"○","gake":"○","takashio":"○","jishin":"○","tsunami":"×","kaji":"×","naisui":"×","kazan":"×"}}
,{"type":"Feature","geometry":{"type":"Point","coordinates":[132.454183,34.426517]},"properties":{"Name":"長束児童館","Jusho":"広島県広島市安佐南区長束4-15-1","kouzui":"○","gake":"○","takashio":"○","jishin":"×","tsunami":"×","kaji":"×","naisui":"×","kazan":"×"}}
,{"type":"Feature","geometry":{"type":"Point","coordinates":[132.45243,34.425954]},"properties":{"Name":"新庄集会所","Jusho":"広島県広島市安佐南区長束4-19-28","kouzui":"×","gake":"○","takashio":"○","jishin":"×","tsunami":"×","kaji":"×","naisui":"×","kazan":"×"}}
,{"type":"Feature","geometry":{"type":"Point","coordinates":[132.453594,34.431622]},"properties":{"Name":"長束集会所","Jusho":"広島県広島市安佐南区長束5-18-6","kouzui":"○","gake":"○","takashio":"○","jishin":"×","tsunami":"×","kaji":"×","naisui":"×","kazan":"×"}}
,{"type":"Feature","geometry":{"type":"Point","coordinates":[132.456463,34.430762]},"properties":{"Name":"長束保育園","Jusho":"広島県広島市安佐南区長束5-29-15","kouzui":"×","gake":"○","takashio":"○","jishin":"×","tsunami":"×","kaji":"×","naisui":"×","kazan":"×"}}
,{"type":"Feature","geometry":{"type":"Point","coordinates":[132.452344,34.435345]},"properties":{"Name":"祇園西公民館","Jusho":"広島県広島市安佐南区長束6-10-28","kouzui":"○","gake":"○","takashio":"○","jishin":"×","tsunami":"×","kaji":"×","naisui":"×","kazan":"×"}}
,{"type":"Feature","geometry":{"type":"Point","coordinates":[132.448716,34.428455]},"properties":{"Name":"長束西小学校","Jusho":"広島県広島市安佐南区長束西1-26-1","kouzui":"○","gake":"○","takashio":"○","jishin":"○","tsunami":"×","kaji":"×","naisui":"×","kazan":"×"}}
,{"type":"Feature","geometry":{"type":"Point","coordinates":[132.448563,34.42783]},"properties":{"Name":"長束中学校","Jusho":"広島県広島市安佐南区長束西1-26-2","kouzui":"○","gake":"×","takashio":"○","jishin":"×","tsunami":"×","kaji":"×","naisui":"×","kazan":"×"}}
,{"type":"Feature","geometry":{"type":"Point","coordinates":[132.448278,34.42908]},"properties":{"Name":"長束西児童館","Jusho":"広島県広島市安佐南区長束西1-26-3","kouzui":"○","gake":"×","takashio":"○","jishin":"×","tsunami":"×","kaji":"×","naisui":"×","kazan":"×"}}
,{"type":"Feature","geometry":{"type":"Point","coordinates":[132.450131,34.430908]},"properties":{"Name":"長束西集会所","Jusho":"広島県広島市安佐南区長束西3-2-3","kouzui":"○","gake":"×","takashio":"○","jishin":"×","tsunami":"×","kaji":"×","naisui":"×","kazan":"×"}}
,{"type":"Feature","geometry":{"type":"Point","coordinates":[132.447521,34.431597]},"properties":{"Name":"広島文化学園大学・短期大学","Jusho":"広島県広島市安佐南区長束西3-5-1","kouzui":"○","gake":"×","takashio":"○","jishin":"×","tsunami":"×","kaji":"×","naisui":"×","kazan":"×"}}
,{"type":"Feature","geometry":{"type":"Point","coordinates":[132.444645,34.431019]},"properties":{"Name":"竜王集会所","Jusho":"広島県広島市安佐南区長束西4-6-28","kouzui":"○","gake":"×","takashio":"○","jishin":"×","tsunami":"×","kaji":"×","naisui":"×","kazan":"×"}}
,{"type":"Feature","geometry":{"type":"Point","coordinates":[132.481421,34.443661]},"properties":{"Name":"東原集会所","Jusho":"広島県広島市安佐南区東原2-6-17","kouzui":"×","gake":"○","takashio":"○","jishin":"×","tsunami":"×","kaji":"×","naisui":"×","kazan":"×"}}
,{"type":"Feature","geometry":{"type":"Point","coordinates":[132.477196,34.445918]},"properties":{"Name":"東原中学校","Jusho":"広島県広島市安佐南区東原3-8-1","kouzui":"○","gake":"○","takashio":"○","jishin":"×","tsunami":"×","kaji":"×","naisui":"×","kazan":"×"}}
,{"type":"Feature","geometry":{"type":"Point","coordinates":[132.485153,34.445811]},"properties":{"Name":"東野小学校","Jusho":"広島県広島市安佐南区東野1-7-1","kouzui":"○","gake":"○","takashio":"○","jishin":"○","tsunami":"×","kaji":"×","naisui":"×","kazan":"×"}}
,{"type":"Feature","geometry":{"type":"Point","coordinates":[132.485516,34.448162]},"properties":{"Name":"東野集会所","Jusho":"広島県広島市安佐南区東野2-20-25","kouzui":"×","gake":"○","takashio":"○","jishin":"×","tsunami":"×","kaji":"×","naisui":"×","kazan":"×"}}
,{"type":"Feature","geometry":{"type":"Point","coordinates":[132.484309,34.4481]},"properties":{"Name":"東野公民館","Jusho":"広島県広島市安佐南区東野2-22-7","kouzui":"×","gake":"○","takashio":"○","jishin":"×","tsunami":"×","kaji":"×","naisui":"×","kazan":"×"}}
,{"type":"Feature","geometry":{"type":"Point","coordinates":[132.492672,34.475316]},"properties":{"Name":"八木梅林公園","Jusho":"広島県広島市安佐南区八木1-22","kouzui":"×","gake":"×","takashio":"×","jishin":"○","tsunami":"×","kaji":"×","naisui":"×","kazan":"×"}}
,{"type":"Feature","geometry":{"type":"Point","coordinates":[132.494114,34.481165]},"properties":{"Name":"梅林集会所","Jusho":"広島県広島市安佐南区八木3-2-24","kouzui":"○","gake":"×","takashio":"○","jishin":"×","tsunami":"×","kaji":"×","naisui":"×","kazan":"×"}}
,{"type":"Feature","geometry":{"type":"Point","coordinates":[132.492567714982,34.482709647271]},"properties":{"Name":"広島市豪雨災害伝承館","Jusho":"広島県広島市安佐南区八木3-24-23","kouzui":"○","gake":"×","takashio":"○","jishin":"×","tsunami":"×","kaji":"×","naisui":"×","kazan":"×"}}
,{"type":"Feature","geometry":{"type":"Point","coordinates":[132.492306,34.48038]},"properties":{"Name":"梅林小学校","Jusho":"広島県広島市安佐南区八木3-3-9","kouzui":"○","gake":"○","takashio":"○","jishin":"○","tsunami":"×","kaji":"×","naisui":"×","kazan":"×"}}
,{"type":"Feature","geometry":{"type":"Point","coordinates":[132.504147,34.483673]},"properties":{"Name":"城山北中学校","Jusho":"広島県広島市安佐南区八木5-34-1","kouzui":"○","gake":"○","takashio":"○","jishin":"○","tsunami":"×","kaji":"×","naisui":"×","kazan":"×"}}
,{"type":"Feature","geometry":{"type":"Point","coordinates":[132.50652,34.488287]},"properties":{"Name":"八木小学校","Jusho":"広島県広島市安佐南区八木9-17-1","kouzui":"○","gake":"○","takashio":"○","jishin":"○","tsunami":"×","kaji":"×","naisui":"×","kazan":"×"}}
,{"type":"Feature","geometry":{"type":"Point","coordinates":[132.506876,34.488508]},"properties":{"Name":"八木幼稚園","Jusho":"広島県広島市安佐南区八木9-17-2","kouzui":"×","gake":"○","takashio":"○","jishin":"×","tsunami":"×","kaji":"×","naisui":"×","kazan":"×"}}
,{"type":"Feature","geometry":{"type":"Point","coordinates":[132.505635,34.487677]},"properties":{"Name":"八木児童館","Jusho":"広島県広島市安佐南区八木9-20-19","kouzui":"×","gake":"○","takashio":"○","jishin":"×","tsunami":"×","kaji":"×","naisui":"×","kazan":"×"}}
,{"type":"Feature","geometry":{"type":"Point","coordinates":[132.505954,34.508576]},"properties":{"Name":"鳴渡場集会所","Jusho":"広島県広島市安佐南区八木町272-1","kouzui":"○","gake":"×","takashio":"○","jishin":"×","tsunami":"×","kaji":"×","naisui":"×","kazan":"×"}}
,{"type":"Feature","geometry":{"type":"Point","coordinates":[132.387079,34.466872]},"properties":{"Name":"伴西公園","Jusho":"広島県広島市安佐南区伴西1-6","kouzui":"×","gake":"×","takashio":"×","jishin":"○","tsunami":"×","kaji":"×","naisui":"×","kazan":"×"}}
,{"type":"Feature","geometry":{"type":"Point","coordinates":[132.38549,34.468321]},"properties":{"Name":"伴福祉センター","Jusho":"広島県広島市安佐南区伴西2-1-17","kouzui":"○","gake":"○","takashio":"○","jishin":"×","tsunami":"×","kaji":"×","naisui":"×","kazan":"×"}}
,{"type":"Feature","geometry":{"type":"Point","coordinates":[132.37329,34.458877]},"properties":{"Name":"奥畑集会所","Jusho":"広島県広島市安佐南区伴西5-1126","kouzui":"○","gake":"×","takashio":"○","jishin":"×","tsunami":"×","kaji":"×","naisui":"×","kazan":"×"}}
,{"type":"Feature","geometry":{"type":"Point","coordinates":[132.406113,34.464226]},"properties":{"Name":"伴中学校","Jusho":"広島県広島市安佐南区伴中央1-7-1","kouzui":"○","gake":"×","takashio":"○","jishin":"×","tsunami":"×","kaji":"×","naisui":"×","kazan":"×"}}
,{"type":"Feature","geometry":{"type":"Point","coordinates":[132.40729,34.461495]},"properties":{"Name":"伴小学校","Jusho":"広島県広島市安佐南区伴中央1-7-2","kouzui":"○","gake":"×","takashio":"○","jishin":"○","tsunami":"×","kaji":"×","naisui":"×","kazan":"×"}}
,{"type":"Feature","geometry":{"type":"Point","coordinates":[132.406412,34.462489]},"properties":{"Name":"伴児童館","Jusho":"広島県広島市安佐南区伴中央1-7-2","kouzui":"○","gake":"×","takashio":"○","jishin":"×","tsunami":"×","kaji":"×","naisui":"×","kazan":"×"}}
,{"type":"Feature","geometry":{"type":"Point","coordinates":[132.401047,34.462365]},"properties":{"Name":"三城田集会所","Jusho":"広島県広島市安佐南区伴中央2-11-12","kouzui":"○","gake":"×","takashio":"○","jishin":"×","tsunami":"×","kaji":"×","naisui":"×","kazan":"×"}}
,{"type":"Feature","geometry":{"type":"Point","coordinates":[132.405612,34.459835]},"properties":{"Name":"伴中央集会所","Jusho":"広島県広島市安佐南区伴中央2-5-80","kouzui":"○","gake":"○","takashio":"○","jishin":"×","tsunami":"×","kaji":"×","naisui":"×","kazan":"×"}}
,{"type":"Feature","geometry":{"type":"Point","coordinates":[132.392343,34.464635]},"properties":{"Name":"瀬戸集会所","Jusho":"広島県広島市安佐南区伴中央3-2076-3","kouzui":"○","gake":"○","takashio":"○","jishin":"×","tsunami":"×","kaji":"×","naisui":"×","kazan":"×"}}
,{"type":"Feature","geometry":{"type":"Point","coordinates":[132.413177,34.469501]},"properties":{"Name":"安佐南区スポーツセンター","Jusho":"広島県広島市安佐南区伴東3-13-16","kouzui":"○","gake":"○","takashio":"○","jishin":"×","tsunami":"×","kaji":"×","naisui":"×","kazan":"×"}}
,{"type":"Feature","geometry":{"type":"Point","coordinates":[132.412713,34.471228]},"properties":{"Name":"広陵高等学校","Jusho":"広島県広島市安佐南区伴東3-14-1","kouzui":"×","gake":"×","takashio":"×","jishin":"○","tsunami":"×","kaji":"○","naisui":"×","kazan":"×"}}
,{"type":"Feature","geometry":{"type":"Point","coordinates":[132.416463,34.467466]},"properties":{"Name":"下伴集会所","Jusho":"広島県広島市安佐南区伴東3-6-1","kouzui":"○","gake":"○","takashio":"○","jishin":"×","tsunami":"×","kaji":"×","naisui":"×","kazan":"×"}}
,{"type":"Feature","geometry":{"type":"Point","coordinates":[132.409937,34.469828]},"properties":{"Name":"細坂集会所","Jusho":"広島県広島市安佐南区伴東4-32-50","kouzui":"○","gake":"×","takashio":"○","jishin":"×","tsunami":"×","kaji":"×","naisui":"×","kazan":"×"}}
,{"type":"Feature","geometry":{"type":"Point","coordinates":[132.420541,34.468338]},"properties":{"Name":"伴東集会所","Jusho":"広島県広島市安佐南区伴東5-18-3","kouzui":"○","gake":"○","takashio":"○","jishin":"×","tsunami":"×","kaji":"×","naisui":"×","kazan":"×"}}
,{"type":"Feature","geometry":{"type":"Point","coordinates":[132.423726,34.461041]},"properties":{"Name":"市立沼田高等学校","Jusho":"広島県広島市安佐南区伴東6-1-1","kouzui":"○","gake":"×","takashio":"○","jishin":"○","tsunami":"×","kaji":"○","naisui":"×","kazan":"×"}}
,{"type":"Feature","geometry":{"type":"Point","coordinates":[132.420591,34.462873]},"properties":{"Name":"伴東小学校","Jusho":"広島県広島市安佐南区伴東7-11-1","kouzui":"○","gake":"○","takashio":"○","jishin":"○","tsunami":"×","kaji":"×","naisui":"×","kazan":"×"}}
,{"type":"Feature","geometry":{"type":"Point","coordinates":[132.410185,34.463195]},"properties":{"Name":"沼田保育園","Jusho":"広島県広島市安佐南区伴東7-63-9","kouzui":"○","gake":"○","takashio":"○","jishin":"×","tsunami":"×","kaji":"×","naisui":"×","kazan":"×"}}
,{"type":"Feature","geometry":{"type":"Point","coordinates":[132.409705,34.46219]},"properties":{"Name":"沼田老人いこいの家","Jusho":"広島県広島市安佐南区伴東7-64-8","kouzui":"○","gake":"○","takashio":"○","jishin":"×","tsunami":"×","kaji":"×","naisui":"×","kazan":"×"}}
,{"type":"Feature","geometry":{"type":"Point","coordinates":[132.409605,34.46229]},"properties":{"Name":"沼田公民館","Jusho":"広島県広島市安佐南区伴東7-64-8","kouzui":"○","gake":"○","takashio":"○","jishin":"×","tsunami":"×","kaji":"×","naisui":"×","kazan":"×"}}
,{"type":"Feature","geometry":{"type":"Point","coordinates":[132.383065,34.452145]},"properties":{"Name":"伴南児童館","Jusho":"広島県広島市安佐南区伴南1-21-1","kouzui":"○","gake":"○","takashio":"○","jishin":"×","tsunami":"×","kaji":"×","naisui":"×","kazan":"×"}}
,{"type":"Feature","geometry":{"type":"Point","coordinates":[132.384152,34.451544]},"properties":{"Name":"伴南小学校","Jusho":"広島県広島市安佐南区伴南1-29-1","kouzui":"○","gake":"○","takashio":"○","jishin":"○","tsunami":"×","kaji":"×","naisui":"×","kazan":"×"}}
,{"type":"Feature","geometry":{"type":"Point","coordinates":[132.38552,34.449311]},"properties":{"Name":"こころ北公園","Jusho":"広島県広島市安佐南区伴南1-38","kouzui":"×","gake":"×","takashio":"×","jishin":"○","tsunami":"×","kaji":"×","naisui":"×","kazan":"×"}}
,{"type":"Feature","geometry":{"type":"Point","coordinates":[132.381897,34.449055]},"properties":{"Name":"伴南学区集会所","Jusho":"広島県広島市安佐南区伴南1-6-5","kouzui":"○","gake":"○","takashio":"○","jishin":"×","tsunami":"×","kaji":"×","naisui":"×","kazan":"×"}}
,{"type":"Feature","geometry":{"type":"Point","coordinates":[132.37778,34.455046]},"properties":{"Name":"奥畑防災調節池公園","Jusho":"広島県広島市安佐南区伴南3-2","kouzui":"×","gake":"×","takashio":"×","jishin":"○","tsunami":"×","kaji":"×","naisui":"×","kazan":"×"}}
,{"type":"Feature","geometry":{"type":"Point","coordinates":[132.393951,34.477185]},"properties":{"Name":"椎原集会所","Jusho":"広島県広島市安佐南区伴北5-2922-1","kouzui":"○","gake":"○","takashio":"○","jishin":"×","tsunami":"×","kaji":"×","naisui":"×","kazan":"×"}}
,{"type":"Feature","geometry":{"type":"Point","coordinates":[132.395077,34.482042]},"properties":{"Name":"広島工業大学沼田校舎","Jusho":"広島県広島市安佐南区伴北6-4104-2","kouzui":"○","gake":"○","takashio":"○","jishin":"×","tsunami":"×","kaji":"×","naisui":"×","kazan":"×"}}
,{"type":"Feature","geometry":{"type":"Point","coordinates":[132.398727,34.484221]},"properties":{"Name":"大下集会所","Jusho":"広島県広島市安佐南区伴北6-9935-2","kouzui":"○","gake":"×","takashio":"○","jishin":"×","tsunami":"×","kaji":"×","naisui":"×","kazan":"×"}}
,{"type":"Feature","geometry":{"type":"Point","coordinates":[132.406434,34.484245]},"properties":{"Name":"若葉台中央公園","Jusho":"広島県広島市安佐南区伴北7-34","kouzui":"×","gake":"×","takashio":"×","jishin":"○","tsunami":"×","kaji":"×","naisui":"×","kazan":"×"}}
,{"type":"Feature","geometry":{"type":"Point","coordinates":[132.461505,34.4778]},"properties":{"Name":"毘沙門台集会所","Jusho":"広島県広島市安佐南区毘沙門台2-48-4","kouzui":"○","gake":"○","takashio":"○","jishin":"×","tsunami":"×","kaji":"×","naisui":"×","kazan":"×"}}
,{"type":"Feature","geometry":{"type":"Point","coordinates":[132.465135,34.480118]},"properties":{"Name":"毘沙門台小学校","Jusho":"広島県広島市安佐南区毘沙門台3-1-1","kouzui":"○","gake":"○","takashio":"○","jishin":"○","tsunami":"×","kaji":"×","naisui":"×","kazan":"×"}}
,{"type":"Feature","geometry":{"type":"Point","coordinates":[132.466013,34.480244]},"properties":{"Name":"毘沙門台児童館","Jusho":"広島県広島市安佐南区毘沙門台3-1-1","kouzui":"○","gake":"○","takashio":"○","jishin":"×","tsunami":"×","kaji":"×","naisui":"×","kazan":"×"}}
,{"type":"Feature","geometry":{"type":"Point","coordinates":[132.464166,34.479934]},"properties":{"Name":"毘沙門台公園","Jusho":"広島県広島市安佐南区毘沙門台3-2","kouzui":"×","gake":"×","takashio":"×","jishin":"○","tsunami":"×","kaji":"×","naisui":"×","kazan":"×"}}
,{"type":"Feature","geometry":{"type":"Point","coordinates":[132.46748,34.480206]},"properties":{"Name":"毘沙門台東公園","Jusho":"広島県広島市安佐南区毘沙門台東1-23","kouzui":"×","gake":"×","takashio":"×","jishin":"○","tsunami":"×","kaji":"×","naisui":"×","kazan":"×"}}
,{"type":"Feature","geometry":{"type":"Point","coordinates":[132.47528,34.466047]},"properties":{"Name":"緑井集会所","Jusho":"広島県広島市安佐南区緑井1-5-1-204","kouzui":"○","gake":"○","takashio":"○","jishin":"×","tsunami":"×","kaji":"×","naisui":"×","kazan":"×"}}
,{"type":"Feature","geometry":{"type":"Point","coordinates":[132.472957,34.46985]},"properties":{"Name":"緑井小学校","Jusho":"広島県広島市安佐南区緑井4-31-1","kouzui":"○","gake":"○","takashio":"○","jishin":"○","tsunami":"×","kaji":"×","naisui":"×","kazan":"×"}}
,{"type":"Feature","geometry":{"type":"Point","coordinates":[132.478088,34.467136]},"properties":{"Name":"ラクア緑井","Jusho":"広島県広島市安佐南区緑井5-22-1","kouzui":"○","gake":"○","takashio":"○","jishin":"×","tsunami":"×","kaji":"×","naisui":"×","kazan":"×"}}
,{"type":"Feature","geometry":{"type":"Point","coordinates":[132.482669,34.471898]},"properties":{"Name":"佐東公民館","Jusho":"広島県広島市安佐南区緑井6-29-25","kouzui":"○","gake":"○","takashio":"○","jishin":"×","tsunami":"×","kaji":"×","naisui":"×","kazan":"×"}}
,{"type":"Feature","geometry":{"type":"Point","coordinates":[132.485316,34.47948]},"properties":{"Name":"緑井保育園","Jusho":"広島県広島市安佐南区緑井8-24-3","kouzui":"○","gake":"×","takashio":"○","jishin":"×","tsunami":"×","kaji":"×","naisui":"×","kazan":"×"}}
,{"type":"Feature","geometry":{"type":"Point","coordinates":[132.43552,34.507319]},"properties":{"Name":"あさひが丘公園","Jusho":"広島県広島市安佐北区あさひが丘3-21","kouzui":"×","gake":"×","takashio":"×","jishin":"○","tsunami":"×","kaji":"×","naisui":"×","kazan":"×"}}
,{"type":"Feature","geometry":{"type":"Point","coordinates":[132.436056,34.507202]},"properties":{"Name":"日浦児童館","Jusho":"広島県広島市安佐北区あさひが丘3-21-1","kouzui":"○","gake":"×","takashio":"○","jishin":"×","tsunami":"×","kaji":"×","naisui":"×","kazan":"×"}}
,{"type":"Feature","geometry":{"type":"Point","coordinates":[132.435852,34.506576]},"properties":{"Name":"日浦公民館","Jusho":"広島県広島市安佐北区あさひが丘3-23-13","kouzui":"○","gake":"○","takashio":"○","jishin":"×","tsunami":"×","kaji":"×","naisui":"×","kazan":"×"}}
,{"type":"Feature","geometry":{"type":"Point","coordinates":[132.434644,34.509191]},"properties":{"Name":"日浦学区集会所","Jusho":"広島県広島市安佐北区あさひが丘6-3-25","kouzui":"○","gake":"○","takashio":"○","jishin":"×","tsunami":"×","kaji":"×","naisui":"×","kazan":"×"}}
,{"type":"Feature","geometry":{"type":"Point","coordinates":[132.439181,34.507981]},"properties":{"Name":"日浦小学校","Jusho":"広島県広島市安佐北区あさひが丘7-12-1","kouzui":"○","gake":"○","takashio":"○","jishin":"○","tsunami":"×","kaji":"×","naisui":"×","kazan":"×"}}
,{"type":"Feature","geometry":{"type":"Point","coordinates":[132.438579,34.50939]},"properties":{"Name":"日浦中学校","Jusho":"広島県広島市安佐北区あさひが丘7-20-1","kouzui":"○","gake":"○","takashio":"○","jishin":"×","tsunami":"×","kaji":"×","naisui":"×","kazan":"×"}}
,{"type":"Feature","geometry":{"type":"Point","coordinates":[132.394981,34.500879]},"properties":{"Name":"久地南児童館","Jusho":"広島県広島市安佐北区安佐町くすの木台52-1","kouzui":"○","gake":"○","takashio":"○","jishin":"×","tsunami":"×","kaji":"×","naisui":"×","kazan":"×"}}
,{"type":"Feature","geometry":{"type":"Point","coordinates":[132.394851,34.501088]},"properties":{"Name":"久地南集会所","Jusho":"広島県広島市安佐北区安佐町くすの木台52-2","kouzui":"○","gake":"○","takashio":"○","jishin":"×","tsunami":"×","kaji":"×","naisui":"×","kazan":"×"}}
,{"type":"Feature","geometry":{"type":"Point","coordinates":[132.392958,34.500017]},"properties":{"Name":"久地南小学校","Jusho":"広島県広島市安佐北区安佐町くすの木台55-1","kouzui":"○","gake":"×","takashio":"○","jishin":"○","tsunami":"×","kaji":"×","naisui":"×","kazan":"×"}}
,{"type":"Feature","geometry":{"type":"Point","coordinates":[132.401075,34.487746]},"properties":{"Name":"境原集会所","Jusho":"広島県広島市安佐北区安佐町久地283-3","kouzui":"○","gake":"×","takashio":"○","jishin":"×","tsunami":"×","kaji":"×","naisui":"×","kazan":"×"}}
,{"type":"Feature","geometry":{"type":"Point","coordinates":[132.405099,34.520506]},"properties":{"Name":"久地保育園","Jusho":"広島県広島市安佐北区安佐町久地4453-1","kouzui":"○","gake":"○","takashio":"○","jishin":"×","tsunami":"×","kaji":"×","naisui":"×","kazan":"×"}}
,{"type":"Feature","geometry":{"type":"Point","coordinates":[132.405973,34.520417]},"properties":{"Name":"旧久地小学校","Jusho":"広島県広島市安佐北区安佐町久地4477-2","kouzui":"○","gake":"×","takashio":"○","jishin":"○","tsunami":"×","kaji":"×","naisui":"×","kazan":"×"}}
,{"type":"Feature","geometry":{"type":"Point","coordinates":[132.405232,34.519162]},"properties":{"Name":"久地集会所","Jusho":"広島県広島市安佐北区安佐町久地4492","kouzui":"○","gake":"×","takashio":"○","jishin":"×","tsunami":"×","kaji":"×","naisui":"×","kazan":"×"}}
,{"type":"Feature","geometry":{"type":"Point","coordinates":[132.44769,34.50616]},"properties":{"Name":"後山集会所","Jusho":"広島県広島市安佐北区安佐町後山1411-5","kouzui":"○","gake":"×","takashio":"○","jishin":"×","tsunami":"×","kaji":"×","naisui":"×","kazan":"×"}}
,{"type":"Feature","geometry":{"type":"Point","coordinates":[132.404357,34.561918]},"properties":{"Name":"小峠集会所","Jusho":"広島県広島市安佐北区安佐町小河内1217-2","kouzui":"○","gake":"×","takashio":"○","jishin":"×","tsunami":"×","kaji":"×","naisui":"×","kazan":"×"}}
,{"type":"Feature","geometry":{"type":"Point","coordinates":[132.418289,34.584113]},"properties":{"Name":"安佐小河内集会所","Jusho":"広島県広島市安佐北区安佐町小河内4579-3","kouzui":"○","gake":"×","takashio":"○","jishin":"×","tsunami":"×","kaji":"×","naisui":"×","kazan":"×"}}
,{"type":"Feature","geometry":{"type":"Point","coordinates":[132.417819,34.582025]},"properties":{"Name":"旧小河内小学校","Jusho":"広島県広島市安佐北区安佐町小河内4734","kouzui":"○","gake":"○","takashio":"○","jishin":"○","tsunami":"×","kaji":"×","naisui":"×","kazan":"×"}}
,{"type":"Feature","geometry":{"type":"Point","coordinates":[132.430537,34.576023]},"properties":{"Name":"青少年野外活動センター","Jusho":"広島県広島市安佐北区安佐町小河内5135","kouzui":"○","gake":"○","takashio":"○","jishin":"×","tsunami":"×","kaji":"×","naisui":"×","kazan":"×"}}
,{"type":"Feature","geometry":{"type":"Point","coordinates":[132.445389,34.552938]},"properties":{"Name":"いずみ保育園","Jusho":"広島県広島市安佐北区安佐町大字飯室1515","kouzui":"○","gake":"×","takashio":"○","jishin":"×","tsunami":"×","kaji":"×","naisui":"×","kazan":"×"}}
,{"type":"Feature","geometry":{"type":"Point","coordinates":[132.480763,34.510203]},"properties":{"Name":"筒瀬福祉センター","Jusho":"広島県広島市安佐北区安佐町筒瀬125-1","kouzui":"×","gake":"○","takashio":"○","jishin":"×","tsunami":"×","kaji":"×","naisui":"×","kazan":"×"}}
,{"type":"Feature","geometry":{"type":"Point","coordinates":[132.47076,34.496647]},"properties":{"Name":"筒瀬小学校","Jusho":"広島県広島市安佐北区安佐町筒瀬1598","kouzui":"○","gake":"×","takashio":"○","jishin":"○","tsunami":"×","kaji":"×","naisui":"×","kazan":"×"}}
,{"type":"Feature","geometry":{"type":"Point","coordinates":[132.473364,34.505622]},"properties":{"Name":"筒瀬集会所","Jusho":"広島県広島市安佐北区安佐町筒瀬459-3","kouzui":"○","gake":"×","takashio":"○","jishin":"×","tsunami":"×","kaji":"×","naisui":"×","kazan":"×"}}
,{"type":"Feature","geometry":{"type":"Point","coordinates":[132.468295,34.498299]},"properties":{"Name":"北部資源選別センター","Jusho":"広島県広島市安佐北区安佐町筒瀬864","kouzui":"○","gake":"○","takashio":"○","jishin":"×","tsunami":"×","kaji":"×","naisui":"×","kazan":"×"}}
,{"type":"Feature","geometry":{"type":"Point","coordinates":[132.444653,34.55204]},"properties":{"Name":"飯室小学校","Jusho":"広島県広島市安佐北区安佐町飯室1544","kouzui":"○","gake":"○","takashio":"○","jishin":"○","tsunami":"×","kaji":"×","naisui":"×","kazan":"×"}}
,{"type":"Feature","geometry":{"type":"Point","coordinates":[132.445278,34.550996]},"properties":{"Name":"飯室集会所","Jusho":"広島県広島市安佐北区安佐町飯室1569-8","kouzui":"○","gake":"○","takashio":"○","jishin":"×","tsunami":"×","kaji":"×","naisui":"×","kazan":"×"}}
,{"type":"Feature","geometry":{"type":"Point","coordinates":[132.440417,34.548929]},"properties":{"Name":"安佐公民館","Jusho":"広島県広島市安佐北区安佐町飯室3455-1","kouzui":"○","gake":"×","takashio":"○","jishin":"×","tsunami":"×","kaji":"×","naisui":"×","kazan":"×"}}
,{"type":"Feature","geometry":{"type":"Point","coordinates":[132.440367,34.550495]},"properties":{"Name":"清和中学校","Jusho":"広島県広島市安佐北区安佐町飯室3737","kouzui":"○","gake":"×","takashio":"○","jishin":"×","tsunami":"×","kaji":"×","naisui":"×","kazan":"×"}}
,{"type":"Feature","geometry":{"type":"Point","coordinates":[132.429502,34.526622]},"properties":{"Name":"毛木集会所","Jusho":"広島県広島市安佐北区安佐町毛木761","kouzui":"○","gake":"×","takashio":"○","jishin":"○","tsunami":"×","kaji":"×","naisui":"×","kazan":"×"}}
,{"type":"Feature","geometry":{"type":"Point","coordinates":[132.460174,34.583862]},"properties":{"Name":"鈴張小学校","Jusho":"広島県広島市安佐北区安佐町鈴張1896","kouzui":"○","gake":"×","takashio":"○","jishin":"○","tsunami":"×","kaji":"×","naisui":"×","kazan":"×"}}
,{"type":"Feature","geometry":{"type":"Point","coordinates":[132.459818,34.58369]},"properties":{"Name":"鈴張児童館","Jusho":"広島県広島市安佐北区安佐町鈴張1915","kouzui":"○","gake":"×","takashio":"○","jishin":"×","tsunami":"×","kaji":"×","naisui":"×","kazan":"×"}}
,{"type":"Feature","geometry":{"type":"Point","coordinates":[132.456108,34.581432]},"properties":{"Name":"鈴張集会所","Jusho":"広島県広島市安佐北区安佐町鈴張2025-1","kouzui":"○","gake":"×","takashio":"○","jishin":"×","tsunami":"×","kaji":"×","naisui":"×","kazan":"×"}}
,{"type":"Feature","geometry":{"type":"Point","coordinates":[132.454926,34.57941]},"properties":{"Name":"特別養護老人ホームこころ","Jusho":"広島県広島市安佐北区安佐町鈴張2688","kouzui":"○","gake":"○","takashio":"○","jishin":"×","tsunami":"×","kaji":"×","naisui":"×","kazan":"×"}}
,{"type":"Feature","geometry":{"type":"Point","coordinates":[132.512338,34.520608]},"properties":{"Name":"安佐北区総合福祉センター","Jusho":"広島県広島市安佐北区可部3-19-22","kouzui":"○","gake":"○","takashio":"○","jishin":"×","tsunami":"×","kaji":"×","naisui":"×","kazan":"×"}}
,{"type":"Feature","geometry":{"type":"Point","coordinates":[132.514018,34.51723]},"properties":{"Name":"可部学区集会所","Jusho":"広島県広島市安佐北区可部3-46-33","kouzui":"○","gake":"○","takashio":"○","jishin":"×","tsunami":"×","kaji":"×","naisui":"×","kazan":"×"}}
,{"type":"Feature","geometry":{"type":"Point","coordinates":[132.509541,34.518574]},"properties":{"Name":"可部小学校","Jusho":"広島県広島市安佐北区可部4-9-1","kouzui":"○","gake":"○","takashio":"○","jishin":"○","tsunami":"×","kaji":"×","naisui":"×","kazan":"×"}}
,{"type":"Feature","geometry":{"type":"Point","coordinates":[132.510311,34.518096]},"properties":{"Name":"可部児童館","Jusho":"広島県広島市安佐北区可部4-9-2","kouzui":"○","gake":"○","takashio":"○","jishin":"×","tsunami":"×","kaji":"×","naisui":"×","kazan":"×"}}
,{"type":"Feature","geometry":{"type":"Point","coordinates":[132.512311,34.524888]},"properties":{"Name":"可部中学校","Jusho":"広島県広島市安佐北区可部7-2-1","kouzui":"○","gake":"○","takashio":"○","jishin":"×","tsunami":"×","kaji":"×","naisui":"×","kazan":"×"}}
,{"type":"Feature","geometry":{"type":"Point","coordinates":[132.507726,34.52575]},"properties":{"Name":"安佐北区民文化センター","Jusho":"広島県広島市安佐北区可部7-28-25","kouzui":"○","gake":"×","takashio":"○","jishin":"×","tsunami":"×","kaji":"×","naisui":"×","kazan":"×"}}
,{"type":"Feature","geometry":{"type":"Point","coordinates":[132.507663,34.52605]},"properties":{"Name":"安佐北区図書館","Jusho":"広島県広島市安佐北区可部7-28-25","kouzui":"○","gake":"×","takashio":"○","jishin":"×","tsunami":"×","kaji":"×","naisui":"×","kazan":"×"}}
,{"type":"Feature","geometry":{"type":"Point","coordinates":[132.507016,34.525872]},"properties":{"Name":"城保育園","Jusho":"広島県広島市安佐北区可部7-29-4","kouzui":"○","gake":"×","takashio":"○","jishin":"×","tsunami":"×","kaji":"×","naisui":"×","kazan":"×"}}
,{"type":"Feature","geometry":{"type":"Point","coordinates":[132.469563,34.51071]},"properties":{"Name":"今井田集会所","Jusho":"広島県広島市安佐北区可部町今井田157","kouzui":"○","gake":"○","takashio":"○","jishin":"×","tsunami":"×","kaji":"×","naisui":"×","kazan":"×"}}
,{"type":"Feature","geometry":{"type":"Point","coordinates":[132.469367,34.534784]},"properties":{"Name":"行森集会所","Jusho":"広島県広島市安佐北区可部町勝木1391-2","kouzui":"○","gake":"×","takashio":"○","jishin":"×","tsunami":"×","kaji":"×","naisui":"×","kazan":"×"}}
,{"type":"Feature","geometry":{"type":"Point","coordinates":[132.465358,34.539359]},"properties":{"Name":"可部運動公園管理事務所","Jusho":"広島県広島市安佐北区可部町勝木1410","kouzui":"○","gake":"○","takashio":"○","jishin":"×","tsunami":"×","kaji":"×","naisui":"×","kazan":"×"}}
,{"type":"Feature","geometry":{"type":"Point","coordinates":[132.437926,34.526684]},"properties":{"Name":"姫瀬集会所","Jusho":"広島県広島市安佐北区可部町勝木284","kouzui":"○","gake":"×","takashio":"○","jishin":"×","tsunami":"×","kaji":"×","naisui":"×","kazan":"×"}}
,{"type":"Feature","geometry":{"type":"Point","coordinates":[132.46078,34.522655]},"properties":{"Name":"大野集会所","Jusho":"広島県広島市安佐北区可部町大字勝木1012-3","kouzui":"○","gake":"×","takashio":"○","jishin":"×","tsunami":"×","kaji":"×","naisui":"×","kazan":"×"}}
,{"type":"Feature","geometry":{"type":"Point","coordinates":[132.520043,34.509731]},"properties":{"Name":"上原前集会所","Jusho":"広島県広島市安佐北区可部東1-26-28","kouzui":"○","gake":"×","takashio":"○","jishin":"×","tsunami":"×","kaji":"×","naisui":"×","kazan":"×"}}
,{"type":"Feature","geometry":{"type":"Point","coordinates":[132.516786,34.511598]},"properties":{"Name":"可部南集会所","Jusho":"広島県広島市安佐北区可部東2-25-3","kouzui":"○","gake":"×","takashio":"○","jishin":"×","tsunami":"×","kaji":"×","naisui":"×","kazan":"×"}}
,{"type":"Feature","geometry":{"type":"Point","coordinates":[132.523638,34.510184]},"properties":{"Name":"第二東亜ハイツ集会所","Jusho":"広島県広島市安佐北区可部東3-27-1","kouzui":"○","gake":"×","takashio":"○","jishin":"×","tsunami":"×","kaji":"×","naisui":"×","kazan":"×"}}
,{"type":"Feature","geometry":{"type":"Point","coordinates":[132.522044,34.514095]},"properties":{"Name":"上原北集会所","Jusho":"広島県広島市安佐北区可部東4-22-5","kouzui":"○","gake":"×","takashio":"○","jishin":"×","tsunami":"×","kaji":"×","naisui":"×","kazan":"×"}}
,{"type":"Feature","geometry":{"type":"Point","coordinates":[132.519321,34.516336]},"properties":{"Name":"県立可部高等学校","Jusho":"広島県広島市安佐北区可部東4-27-1","kouzui":"○","gake":"○","takashio":"○","jishin":"×","tsunami":"×","kaji":"×","naisui":"×","kazan":"×"}}
,{"type":"Feature","geometry":{"type":"Point","coordinates":[132.517164,34.514698]},"properties":{"Name":"寺山公園","Jusho":"広島県広島市安佐北区可部東4-28","kouzui":"×","gake":"×","takashio":"×","jishin":"○","tsunami":"×","kaji":"○","naisui":"×","kazan":"×"}}
,{"type":"Feature","geometry":{"type":"Point","coordinates":[132.518663,34.518635]},"properties":{"Name":"台中央集会所","Jusho":"広島県広島市安佐北区可部東5-24-23","kouzui":"○","gake":"×","takashio":"○","jishin":"×","tsunami":"×","kaji":"×","naisui":"×","kazan":"×"}}
,{"type":"Feature","geometry":{"type":"Point","coordinates":[132.514233,34.500537]},"properties":{"Name":"中島会館","Jusho":"広島県広島市安佐北区可部南1-1-39","kouzui":"×","gake":"○","takashio":"○","jishin":"×","tsunami":"×","kaji":"×","naisui":"×","kazan":"×"}}
,{"type":"Feature","geometry":{"type":"Point","coordinates":[132.513392,34.494913]},"properties":{"Name":"中島南集会所","Jusho":"広島県広島市安佐北区可部南1-23-27-3","kouzui":"×","gake":"○","takashio":"○","jishin":"×","tsunami":"×","kaji":"×","naisui":"×","kazan":"×"}}
,{"type":"Feature","geometry":{"type":"Point","coordinates":[132.51564,34.505917]},"properties":{"Name":"あさきたコミュニティセンター予定場所","Jusho":"広島県広島市安佐北区可部南2-1-38","kouzui":"○","gake":"○","takashio":"○","jishin":"×","tsunami":"×","kaji":"×","naisui":"×","kazan":"×"}}
,{"type":"Feature","geometry":{"type":"Point","coordinates":[132.516733,34.504226]},"properties":{"Name":"可部南小学校","Jusho":"広島県広島市安佐北区可部南2-11-1","kouzui":"○","gake":"○","takashio":"○","jishin":"○","tsunami":"×","kaji":"×","naisui":"×","kazan":"×"}}
,{"type":"Feature","geometry":{"type":"Point","coordinates":[132.517025,34.503535]},"properties":{"Name":"可部南児童館","Jusho":"広島県広島市安佐北区可部南2-11-2","kouzui":"×","gake":"○","takashio":"○","jishin":"×","tsunami":"×","kaji":"×","naisui":"×","kazan":"×"}}
,{"type":"Feature","geometry":{"type":"Point","coordinates":[132.517205,34.500427]},"properties":{"Name":"広島市可部福祉センター","Jusho":"広島県広島市安佐北区可部南2-23-28","kouzui":"×","gake":"○","takashio":"○","jishin":"×","tsunami":"×","kaji":"×","naisui":"×","kazan":"×"}}
,{"type":"Feature","geometry":{"type":"Point","coordinates":[132.510899,34.507441]},"properties":{"Name":"中屋集会所","Jusho":"広島県広島市安佐北区可部南4-10-37","kouzui":"×","gake":"○","takashio":"○","jishin":"×","tsunami":"×","kaji":"×","naisui":"×","kazan":"×"}}
,{"type":"Feature","geometry":{"type":"Point","coordinates":[132.512514,34.51019]},"properties":{"Name":"下の浜集会所","Jusho":"広島県広島市安佐北区可部南5-1-2","kouzui":"○","gake":"○","takashio":"○","jishin":"×","tsunami":"×","kaji":"×","naisui":"×","kazan":"×"}}
,{"type":"Feature","geometry":{"type":"Point","coordinates":[132.514256,34.508764]},"properties":{"Name":"北部こども療育センター","Jusho":"広島県広島市安佐北区可部南5-8-70","kouzui":"○","gake":"○","takashio":"○","jishin":"×","tsunami":"×","kaji":"×","naisui":"×","kazan":"×"}}
,{"type":"Feature","geometry":{"type":"Point","coordinates":[132.522626,34.486143]},"properties":{"Name":"西山公園","Jusho":"広島県広島市安佐北区亀崎2-4","kouzui":"×","gake":"×","takashio":"×","jishin":"○","tsunami":"×","kaji":"×","naisui":"×","kazan":"×"}}
,{"type":"Feature","geometry":{"type":"Point","coordinates":[132.524642,34.486871]},"properties":{"Name":"亀崎集会所","Jusho":"広島県広島市安佐北区亀崎3-6-18","kouzui":"○","gake":"○","takashio":"○","jishin":"×","tsunami":"×","kaji":"×","naisui":"×","kazan":"×"}}
,{"type":"Feature","geometry":{"type":"Point","coordinates":[132.527495,34.484342]},"properties":{"Name":"亀崎中学校","Jusho":"広島県広島市安佐北区亀崎4-1-1","kouzui":"○","gake":"×","takashio":"○","jishin":"×","tsunami":"×","kaji":"×","naisui":"×","kazan":"×"}}
,{"type":"Feature","geometry":{"type":"Point","coordinates":[132.525135,34.483092]},"properties":{"Name":"亀崎小学校","Jusho":"広島県広島市安佐北区亀崎4-2-1","kouzui":"○","gake":"○","takashio":"○","jishin":"○","tsunami":"×","kaji":"×","naisui":"×","kazan":"×"}}
,{"type":"Feature","geometry":{"type":"Point","coordinates":[132.526571,34.483118]},"properties":{"Name":"亀崎児童館","Jusho":"広島県広島市安佐北区亀崎4-2-2","kouzui":"○","gake":"○","takashio":"○","jishin":"×","tsunami":"×","kaji":"×","naisui":"×","kazan":"×"}}
,{"type":"Feature","geometry":{"type":"Point","coordinates":[132.495472,34.527003]},"properties":{"Name":"亀山小学校","Jusho":"広島県広島市安佐北区亀山5-11-1","kouzui":"○","gake":"×","takashio":"○","jishin":"○","tsunami":"×","kaji":"×","naisui":"×","kazan":"×"}}
,{"type":"Feature","geometry":{"type":"Point","coordinates":[132.496487,34.525922]},"properties":{"Name":"亀山集会所","Jusho":"広島県広島市安佐北区亀山5-9-5","kouzui":"○","gake":"×","takashio":"○","jishin":"×","tsunami":"×","kaji":"×","naisui":"×","kazan":"×"}}
,{"type":"Feature","geometry":{"type":"Point","coordinates":[132.492557,34.526285]},"properties":{"Name":"亀山児童館","Jusho":"広島県広島市安佐北区亀山7-4-10","kouzui":"○","gake":"○","takashio":"○","jishin":"×","tsunami":"×","kaji":"×","naisui":"×","kazan":"×"}}
,{"type":"Feature","geometry":{"type":"Point","coordinates":[132.474581,34.530587]},"properties":{"Name":"勝木台公園","Jusho":"広島県広島市安佐北区亀山西2-32","kouzui":"×","gake":"×","takashio":"×","jishin":"○","tsunami":"×","kaji":"×","naisui":"×","kazan":"×"}}
,{"type":"Feature","geometry":{"type":"Point","coordinates":[132.495666,34.518653]},"properties":{"Name":"亀山南集会所","Jusho":"広島県広島市安佐北区亀山南2-6-15","kouzui":"○","gake":"×","takashio":"○","jishin":"×","tsunami":"×","kaji":"×","naisui":"×","kazan":"×"}}
,{"type":"Feature","geometry":{"type":"Point","coordinates":[132.495331,34.522446]},"properties":{"Name":"亀山公民館","Jusho":"広島県広島市安佐北区亀山南3-16-16","kouzui":"○","gake":"×","takashio":"○","jishin":"×","tsunami":"×","kaji":"×","naisui":"×","kazan":"×"}}
,{"type":"Feature","geometry":{"type":"Point","coordinates":[132.493229,34.5193]},"properties":{"Name":"亀山中学校・亀山南小学校","Jusho":"広島県広島市安佐北区亀山南3-28","kouzui":"×","gake":"×","takashio":"×","jishin":"○","tsunami":"×","kaji":"○","naisui":"×","kazan":"×"}}
,{"type":"Feature","geometry":{"type":"Point","coordinates":[132.492813,34.519697]},"properties":{"Name":"亀山中学校","Jusho":"広島県広島市安佐北区亀山南3-28-1","kouzui":"○","gake":"○","takashio":"○","jishin":"×","tsunami":"×","kaji":"×","naisui":"×","kazan":"×"}}
,{"type":"Feature","geometry":{"type":"Point","coordinates":[132.494208,34.520235]},"properties":{"Name":"亀山南小学校","Jusho":"広島県広島市安佐北区亀山南3-28-2","kouzui":"○","gake":"○","takashio":"○","jishin":"○","tsunami":"×","kaji":"×","naisui":"×","kazan":"×"}}
,{"type":"Feature","geometry":{"type":"Point","coordinates":[132.49509,34.519998]},"properties":{"Name":"亀山南児童館","Jusho":"広島県広島市安佐北区亀山南3-28-3","kouzui":"○","gake":"○","takashio":"○","jishin":"×","tsunami":"×","kaji":"×","naisui":"×","kazan":"×"}}
,{"type":"Feature","geometry":{"type":"Point","coordinates":[132.492436,34.524983]},"properties":{"Name":"虹山集会所","Jusho":"広島県広島市安佐北区亀山南5-4-6","kouzui":"○","gake":"○","takashio":"○","jishin":"×","tsunami":"×","kaji":"×","naisui":"×","kazan":"×"}}
,{"type":"Feature","geometry":{"type":"Point","coordinates":[132.485253,34.527738]},"properties":{"Name":"亀山南保育園","Jusho":"広島県広島市安佐北区亀山南5-44-31","kouzui":"○","gake":"×","takashio":"○","jishin":"×","tsunami":"×","kaji":"×","naisui":"×","kazan":"×"}}
,{"type":"Feature","geometry":{"type":"Point","coordinates":[132.501693,34.469191]},"properties":{"Name":"口田東小学校","Jusho":"広島県広島市安佐北区口田2-1-1","kouzui":"○","gake":"○","takashio":"○","jishin":"○","tsunami":"×","kaji":"×","naisui":"×","kazan":"×"}}
,{"type":"Feature","geometry":{"type":"Point","coordinates":[132.500707,34.469341]},"properties":{"Name":"口田東児童館","Jusho":"広島県広島市安佐北区口田2-1-3","kouzui":"○","gake":"○","takashio":"○","jishin":"×","tsunami":"×","kaji":"×","naisui":"×","kazan":"×"}}
,{"type":"Feature","geometry":{"type":"Point","coordinates":[132.504221,34.470413]},"properties":{"Name":"口田東集会所","Jusho":"広島県広島市安佐北区口田4-12-23","kouzui":"○","gake":"×","takashio":"○","jishin":"×","tsunami":"×","kaji":"×","naisui":"×","kazan":"×"}}
,{"type":"Feature","geometry":{"type":"Point","coordinates":[132.503771,34.469141]},"properties":{"Name":"口田公民館","Jusho":"広島県広島市安佐北区口田4-9-19","kouzui":"○","gake":"○","takashio":"○","jishin":"×","tsunami":"×","kaji":"×","naisui":"×","kazan":"×"}}
,{"type":"Feature","geometry":{"type":"Point","coordinates":[132.493278,34.4527]},"properties":{"Name":"口田南集会所","Jusho":"広島県広島市安佐北区口田南2-21-23","kouzui":"○","gake":"○","takashio":"○","jishin":"×","tsunami":"×","kaji":"×","naisui":"×","kazan":"×"}}
,{"type":"Feature","geometry":{"type":"Point","coordinates":[132.496032,34.458404]},"properties":{"Name":"口田小学校","Jusho":"広島県広島市安佐北区口田南2-7-2","kouzui":"○","gake":"○","takashio":"○","jishin":"○","tsunami":"×","kaji":"×","naisui":"×","kazan":"×"}}
,{"type":"Feature","geometry":{"type":"Point","coordinates":[132.495395544924,34.4580328316029]},"properties":{"Name":"口田児童館","Jusho":"広島県広島市安佐北区口田南2-7-3","kouzui":"○","gake":"○","takashio":"○","jishin":"×","tsunami":"×","kaji":"×","naisui":"×","kazan":"×"}}
,{"type":"Feature","geometry":{"type":"Point","coordinates":[132.497501,34.455646]},"properties":{"Name":"口田保育園","Jusho":"広島県広島市安佐北区口田南4-33-20","kouzui":"○","gake":"○","takashio":"○","jishin":"×","tsunami":"×","kaji":"×","naisui":"×","kazan":"×"}}
,{"type":"Feature","geometry":{"type":"Point","coordinates":[132.503738,34.457424]},"properties":{"Name":"口田南公園","Jusho":"広島県広島市安佐北区口田南6","kouzui":"×","gake":"×","takashio":"×","jishin":"○","tsunami":"×","kaji":"×","naisui":"×","kazan":"×"}}
,{"type":"Feature","geometry":{"type":"Point","coordinates":[132.507402,34.456331]},"properties":{"Name":"口田中学校","Jusho":"広島県広島市安佐北区口田南9-13-1","kouzui":"○","gake":"×","takashio":"○","jishin":"×","tsunami":"×","kaji":"×","naisui":"×","kazan":"×"}}
,{"type":"Feature","geometry":{"type":"Point","coordinates":[132.509123,34.458792]},"properties":{"Name":"矢口が丘公園","Jusho":"広島県広島市安佐北区口田南9-19","kouzui":"×","gake":"×","takashio":"×","jishin":"○","tsunami":"×","kaji":"×","naisui":"×","kazan":"×"}}
,{"type":"Feature","geometry":{"type":"Point","coordinates":[132.523842,34.537976]},"properties":{"Name":"三入集会所","Jusho":"広島県広島市安佐北区三入2-28-21","kouzui":"○","gake":"○","takashio":"○","jishin":"×","tsunami":"×","kaji":"×","naisui":"×","kazan":"×"}}
,{"type":"Feature","geometry":{"type":"Point","coordinates":[132.52689,34.539317]},"properties":{"Name":"三入小学校","Jusho":"広島県広島市安佐北区三入3-12-1","kouzui":"○","gake":"○","takashio":"○","jishin":"○","tsunami":"×","kaji":"×","naisui":"×","kazan":"×"}}
,{"type":"Feature","geometry":{"type":"Point","coordinates":[132.530436,34.542361]},"properties":{"Name":"三入児童館","Jusho":"広島県広島市安佐北区三入5-15-9","kouzui":"○","gake":"○","takashio":"○","jishin":"×","tsunami":"×","kaji":"×","naisui":"×","kazan":"×"}}
,{"type":"Feature","geometry":{"type":"Point","coordinates":[132.530396,34.542559]},"properties":{"Name":"三入公民館","Jusho":"広島県広島市安佐北区三入5-15-9","kouzui":"○","gake":"○","takashio":"○","jishin":"×","tsunami":"×","kaji":"×","naisui":"×","kazan":"×"}}
,{"type":"Feature","geometry":{"type":"Point","coordinates":[132.538861,34.535108]},"properties":{"Name":"三入東児童館","Jusho":"広島県広島市安佐北区三入東1-10-5","kouzui":"○","gake":"○","takashio":"○","jishin":"×","tsunami":"×","kaji":"×","naisui":"×","kazan":"×"}}
,{"type":"Feature","geometry":{"type":"Point","coordinates":[132.540917,34.532067]},"properties":{"Name":"市立広島中等教育学校","Jusho":"広島県広島市安佐北区三入東1-14-1","kouzui":"○","gake":"○","takashio":"○","jishin":"×","tsunami":"×","kaji":"×","naisui":"×","kazan":"×"}}
,{"type":"Feature","geometry":{"type":"Point","coordinates":[132.535028,34.535407]},"properties":{"Name":"三入東小学校","Jusho":"広島県広島市安佐北区三入東1-3-1","kouzui":"○","gake":"×","takashio":"○","jishin":"○","tsunami":"×","kaji":"×","naisui":"×","kazan":"×"}}
,{"type":"Feature","geometry":{"type":"Point","coordinates":[132.537981,34.53502]},"properties":{"Name":"三入中学校","Jusho":"広島県広島市安佐北区三入東1-7-1","kouzui":"○","gake":"○","takashio":"○","jishin":"○","tsunami":"×","kaji":"×","naisui":"×","kazan":"×"}}
,{"type":"Feature","geometry":{"type":"Point","coordinates":[132.546346,34.53495]},"properties":{"Name":"桐陽台公園","Jusho":"広島県広島市安佐北区三入東2-6","kouzui":"×","gake":"×","takashio":"×","jishin":"○","tsunami":"×","kaji":"×","naisui":"×","kazan":"×"}}
,{"type":"Feature","geometry":{"type":"Point","coordinates":[132.547759,34.534408]},"properties":{"Name":"三入東学区集会所","Jusho":"広島県広島市安佐北区三入東2-7-14","kouzui":"○","gake":"○","takashio":"○","jishin":"×","tsunami":"×","kaji":"×","naisui":"×","kazan":"×"}}
,{"type":"Feature","geometry":{"type":"Point","coordinates":[132.578097,34.482503]},"properties":{"Name":"狩留家保育園","Jusho":"広島県広島市安佐北区狩留家町2858","kouzui":"○","gake":"×","takashio":"○","jishin":"×","tsunami":"×","kaji":"×","naisui":"×","kazan":"×"}}
,{"type":"Feature","geometry":{"type":"Point","coordinates":[132.559954,34.470176]},"properties":{"Name":"狩小川保育園","Jusho":"広島県広島市安佐北区小河原町120","kouzui":"○","gake":"○","takashio":"○","jishin":"×","tsunami":"×","kaji":"×","naisui":"×","kazan":"×"}}
,{"type":"Feature","geometry":{"type":"Point","coordinates":[132.560622,34.471052]},"properties":{"Name":"小河原・上深川集会所","Jusho":"広島県広島市安佐北区小河原町160-1","kouzui":"○","gake":"○","takashio":"○","jishin":"×","tsunami":"×","kaji":"×","naisui":"×","kazan":"×"}}
,{"type":"Feature","geometry":{"type":"Point","coordinates":[132.566953,34.48029]},"properties":{"Name":"狩小川児童館","Jusho":"広島県広島市安佐北区上深川町1315-4","kouzui":"○","gake":"○","takashio":"○","jishin":"×","tsunami":"×","kaji":"×","naisui":"×","kazan":"×"}}
,{"type":"Feature","geometry":{"type":"Point","coordinates":[132.566818,34.481448]},"properties":{"Name":"狩小川小学校","Jusho":"広島県広島市安佐北区上深川町1345","kouzui":"○","gake":"○","takashio":"○","jishin":"○","tsunami":"×","kaji":"×","naisui":"×","kazan":"×"}}
,{"type":"Feature","geometry":{"type":"Point","coordinates":[132.522397,34.490708]},"properties":{"Name":"深川集会所","Jusho":"広島県広島市安佐北区深川1-5-11","kouzui":"×","gake":"○","takashio":"○","jishin":"×","tsunami":"×","kaji":"×","naisui":"×","kazan":"×"}}
,{"type":"Feature","geometry":{"type":"Point","coordinates":[132.516681,34.492925]},"properties":{"Name":"安佐北区スポーツセンター（大和興産安佐北区スポーツセンター）","Jusho":"広島県広島市安佐北区深川2-50-1","kouzui":"○","gake":"○","takashio":"○","jishin":"×","tsunami":"×","kaji":"×","naisui":"×","kazan":"×"}}
,{"type":"Feature","geometry":{"type":"Point","coordinates":[132.53063,34.482248]},"properties":{"Name":"深川小学校","Jusho":"広島県広島市安佐北区深川5-12-1","kouzui":"○","gake":"○","takashio":"○","jishin":"○","tsunami":"×","kaji":"×","naisui":"×","kazan":"×"}}
,{"type":"Feature","geometry":{"type":"Point","coordinates":[132.531731,34.48195]},"properties":{"Name":"深川児童館","Jusho":"広島県広島市安佐北区深川5-12-2","kouzui":"○","gake":"○","takashio":"○","jishin":"×","tsunami":"×","kaji":"×","naisui":"×","kazan":"×"}}
,{"type":"Feature","geometry":{"type":"Point","coordinates":[132.53157,34.482536]},"properties":{"Name":"高陽公民館","Jusho":"広島県広島市安佐北区深川5-13-12","kouzui":"○","gake":"○","takashio":"○","jishin":"×","tsunami":"×","kaji":"×","naisui":"×","kazan":"×"}}
,{"type":"Feature","geometry":{"type":"Point","coordinates":[132.530866,34.483133]},"properties":{"Name":"深川保育園","Jusho":"広島県広島市安佐北区深川5-4-4","kouzui":"×","gake":"○","takashio":"○","jishin":"×","tsunami":"×","kaji":"×","naisui":"×","kazan":"×"}}
,{"type":"Feature","geometry":{"type":"Point","coordinates":[132.534084,34.47863]},"properties":{"Name":"高陽中学校","Jusho":"広島県広島市安佐北区深川6-22-6","kouzui":"○","gake":"○","takashio":"○","jishin":"○","tsunami":"×","kaji":"×","naisui":"×","kazan":"×"}}
,{"type":"Feature","geometry":{"type":"Point","coordinates":[132.520421,34.480662]},"properties":{"Name":"真亀児童館","Jusho":"広島県広島市安佐北区真亀1-3-27","kouzui":"○","gake":"○","takashio":"○","jishin":"×","tsunami":"×","kaji":"×","naisui":"×","kazan":"×"}}
,{"type":"Feature","geometry":{"type":"Point","coordinates":[132.52085,34.480649]},"properties":{"Name":"真亀公民館","Jusho":"広島県広島市安佐北区真亀1-3-27","kouzui":"○","gake":"○","takashio":"○","jishin":"×","tsunami":"×","kaji":"×","naisui":"×","kazan":"×"}}
,{"type":"Feature","geometry":{"type":"Point","coordinates":[132.51881,34.480308]},"properties":{"Name":"寺迫公園","Jusho":"広島県広島市安佐北区真亀1-9","kouzui":"×","gake":"×","takashio":"×","jishin":"○","tsunami":"×","kaji":"○","naisui":"×","kazan":"×"}}
,{"type":"Feature","geometry":{"type":"Point","coordinates":[132.516902,34.482187]},"properties":{"Name":"落合中学校","Jusho":"広島県広島市安佐北区真亀2-1-1","kouzui":"○","gake":"○","takashio":"○","jishin":"×","tsunami":"×","kaji":"×","naisui":"×","kazan":"×"}}
,{"type":"Feature","geometry":{"type":"Point","coordinates":[132.511236,34.481503]},"properties":{"Name":"恵下山公園","Jusho":"広島県広島市安佐北区真亀3-23","kouzui":"×","gake":"×","takashio":"×","jishin":"○","tsunami":"×","kaji":"×","naisui":"×","kazan":"×"}}
,{"type":"Feature","geometry":{"type":"Point","coordinates":[132.51514,34.484562]},"properties":{"Name":"真亀集会所","Jusho":"広島県広島市安佐北区真亀3-4-1","kouzui":"○","gake":"○","takashio":"○","jishin":"×","tsunami":"×","kaji":"×","naisui":"×","kazan":"×"}}
,{"type":"Feature","geometry":{"type":"Point","coordinates":[132.515014,34.484914]},"properties":{"Name":"真亀保育園","Jusho":"広島県広島市安佐北区真亀3-4-2","kouzui":"○","gake":"○","takashio":"○","jishin":"×","tsunami":"×","kaji":"×","naisui":"×","kazan":"×"}}
,{"type":"Feature","geometry":{"type":"Point","coordinates":[132.517953,34.483002]},"properties":{"Name":"真亀小学校","Jusho":"広島県広島市安佐北区真亀5-28-1","kouzui":"○","gake":"○","takashio":"○","jishin":"○","tsunami":"×","kaji":"×","naisui":"×","kazan":"×"}}
,{"type":"Feature","geometry":{"type":"Point","coordinates":[132.528392,34.474182]},"properties":{"Name":"倉掛児童館","Jusho":"広島県広島市安佐北区倉掛1-12-1","kouzui":"○","gake":"○","takashio":"○","jishin":"×","tsunami":"×","kaji":"×","naisui":"×","kazan":"×"}}
,{"type":"Feature","geometry":{"type":"Point","coordinates":[132.528646,34.474352]},"properties":{"Name":"倉掛公民館","Jusho":"広島県広島市安佐北区倉掛1-12-1","kouzui":"○","gake":"○","takashio":"○","jishin":"×","tsunami":"×","kaji":"×","naisui":"×","kazan":"×"}}
,{"type":"Feature","geometry":{"type":"Point","coordinates":[132.528605,34.473008]},"properties":{"Name":"倉掛小学校","Jusho":"広島県広島市安佐北区倉掛1-13-1","kouzui":"○","gake":"○","takashio":"○","jishin":"○","tsunami":"×","kaji":"×","naisui":"×","kazan":"×"}}
,{"type":"Feature","geometry":{"type":"Point","coordinates":[132.529394,34.474686]},"properties":{"Name":"倉掛集会所","Jusho":"広島県広島市安佐北区倉掛2-2-2","kouzui":"○","gake":"○","takashio":"○","jishin":"×","tsunami":"×","kaji":"×","naisui":"×","kazan":"×"}}
,{"type":"Feature","geometry":{"type":"Point","coordinates":[132.531512,34.469811]},"properties":{"Name":"県消防学校・市総合防災センター","Jusho":"広島県広島市安佐北区倉掛2-33","kouzui":"×","gake":"×","takashio":"×","jishin":"○","tsunami":"×","kaji":"○","naisui":"×","kazan":"×"}}
,{"type":"Feature","geometry":{"type":"Point","coordinates":[132.533349,34.470552]},"properties":{"Name":"広島市総合防災センター","Jusho":"広島県広島市安佐北区倉掛2-33-1","kouzui":"○","gake":"×","takashio":"○","jishin":"×","tsunami":"×","kaji":"×","naisui":"×","kazan":"×"}}
,{"type":"Feature","geometry":{"type":"Point","coordinates":[132.531916,34.475258]},"properties":{"Name":"倉掛公園","Jusho":"広島県広島市安佐北区倉掛3-37","kouzui":"×","gake":"×","takashio":"×","jishin":"○","tsunami":"×","kaji":"×","naisui":"×","kazan":"×"}}
,{"type":"Feature","geometry":{"type":"Point","coordinates":[132.541069,34.551001]},"properties":{"Name":"大林集会所","Jusho":"広島県広島市安佐北区大林2-8-33","kouzui":"○","gake":"○","takashio":"○","jishin":"×","tsunami":"×","kaji":"×","naisui":"×","kazan":"×"}}
,{"type":"Feature","geometry":{"type":"Point","coordinates":[132.546169,34.554861]},"properties":{"Name":"大林小学校","Jusho":"広島県広島市安佐北区大林4-14-1","kouzui":"○","gake":"○","takashio":"○","jishin":"○","tsunami":"×","kaji":"×","naisui":"×","kazan":"×"}}
,{"type":"Feature","geometry":{"type":"Point","coordinates":[132.545017,34.553612]},"properties":{"Name":"大林保育園","Jusho":"広島県広島市安佐北区大林4-15-18","kouzui":"○","gake":"×","takashio":"○","jishin":"×","tsunami":"×","kaji":"×","naisui":"×","kazan":"×"}}
,{"type":"Feature","geometry":{"type":"Point","coordinates":[132.674861,34.582803]},"properties":{"Name":"井原会館","Jusho":"広島県広島市安佐北区白木町井原4442-2","kouzui":"○","gake":"×","takashio":"○","jishin":"×","tsunami":"×","kaji":"×","naisui":"×","kazan":"×"}}
,{"type":"Feature","geometry":{"type":"Point","coordinates":[132.677207,34.586113]},"properties":{"Name":"井原小学校","Jusho":"広島県広島市安佐北区白木町井原825","kouzui":"○","gake":"○","takashio":"○","jishin":"○","tsunami":"×","kaji":"×","naisui":"×","kazan":"×"}}
,{"type":"Feature","geometry":{"type":"Point","coordinates":[132.612321,34.513582]},"properties":{"Name":"三田集会所","Jusho":"広島県広島市安佐北区白木町三田2218-1","kouzui":"×","gake":"○","takashio":"○","jishin":"×","tsunami":"×","kaji":"×","naisui":"×","kazan":"×"}}
,{"type":"Feature","geometry":{"type":"Point","coordinates":[132.611682,34.512894]},"properties":{"Name":"三田小学校","Jusho":"広島県広島市安佐北区白木町三田2649","kouzui":"○","gake":"○","takashio":"○","jishin":"○","tsunami":"×","kaji":"×","naisui":"×","kazan":"×"}}
,{"type":"Feature","geometry":{"type":"Point","coordinates":[132.590491,34.503399]},"properties":{"Name":"下三田集会所","Jusho":"広島県広島市安佐北区白木町三田5826","kouzui":"○","gake":"○","takashio":"○","jishin":"×","tsunami":"×","kaji":"×","naisui":"×","kazan":"×"}}
,{"type":"Feature","geometry":{"type":"Point","coordinates":[132.610182,34.513976]},"properties":{"Name":"三田保育園","Jusho":"広島県広島市安佐北区白木町三田7173-3","kouzui":"○","gake":"×","takashio":"○","jishin":"×","tsunami":"×","kaji":"×","naisui":"×","kazan":"×"}}
,{"type":"Feature","geometry":{"type":"Point","coordinates":[132.635048,34.529582]},"properties":{"Name":"上三田集会所","Jusho":"広島県広島市安佐北区白木町三田9063-3","kouzui":"○","gake":"○","takashio":"○","jishin":"×","tsunami":"×","kaji":"×","naisui":"×","kazan":"×"}}
,{"type":"Feature","geometry":{"type":"Point","coordinates":[132.655043,34.554326]},"properties":{"Name":"白木中学校","Jusho":"広島県広島市安佐北区白木町市川1428","kouzui":"○","gake":"○","takashio":"○","jishin":"○","tsunami":"×","kaji":"×","naisui":"×","kazan":"×"}}
,{"type":"Feature","geometry":{"type":"Point","coordinates":[132.617858,34.578244]},"properties":{"Name":"志屋小学校","Jusho":"広島県広島市安佐北区白木町志路3890-1","kouzui":"○","gake":"○","takashio":"○","jishin":"○","tsunami":"×","kaji":"×","naisui":"×","kazan":"×"}}
,{"type":"Feature","geometry":{"type":"Point","coordinates":[132.618373,34.577703]},"properties":{"Name":"志屋集会所","Jusho":"広島県広島市安佐北区白木町志路3925-1","kouzui":"○","gake":"×","takashio":"○","jishin":"×","tsunami":"×","kaji":"×","naisui":"×","kazan":"×"}}
,{"type":"Feature","geometry":{"type":"Point","coordinates":[132.659177,34.550094]},"properties":{"Name":"高南小学校","Jusho":"広島県広島市安佐北区白木町秋山1188","kouzui":"○","gake":"×","takashio":"○","jishin":"○","tsunami":"×","kaji":"×","naisui":"×","kazan":"×"}}
,{"type":"Feature","geometry":{"type":"Point","coordinates":[132.657475,34.552531]},"properties":{"Name":"白木公民館","Jusho":"広島県広島市安佐北区白木町秋山2391-4","kouzui":"○","gake":"○","takashio":"○","jishin":"×","tsunami":"×","kaji":"×","naisui":"×","kazan":"×"}}
,{"type":"Feature","geometry":{"type":"Point","coordinates":[132.507417,34.480098]},"properties":{"Name":"玖村会館","Jusho":"広島県広島市安佐北区落合2-41-26","kouzui":"×","gake":"○","takashio":"○","jishin":"×","tsunami":"×","kaji":"×","naisui":"×","kazan":"×"}}
,{"type":"Feature","geometry":{"type":"Point","coordinates":[132.513481,34.47741]},"properties":{"Name":"落合保育園","Jusho":"広島県広島市安佐北区落合3-8-21","kouzui":"○","gake":"○","takashio":"○","jishin":"×","tsunami":"×","kaji":"×","naisui":"×","kazan":"×"}}
,{"type":"Feature","geometry":{"type":"Point","coordinates":[132.515316,34.475421]},"properties":{"Name":"落合東小学校","Jusho":"広島県広島市安佐北区落合4-13-1","kouzui":"○","gake":"○","takashio":"○","jishin":"○","tsunami":"×","kaji":"×","naisui":"×","kazan":"×"}}
,{"type":"Feature","geometry":{"type":"Point","coordinates":[132.514935,34.476097]},"properties":{"Name":"落合東児童館","Jusho":"広島県広島市安佐北区落合4-13-2","kouzui":"○","gake":"○","takashio":"○","jishin":"×","tsunami":"×","kaji":"×","naisui":"×","kazan":"×"}}
,{"type":"Feature","geometry":{"type":"Point","coordinates":[132.514586,34.475888]},"properties":{"Name":"落合東幼稚園","Jusho":"広島県広島市安佐北区落合4-14-1","kouzui":"○","gake":"○","takashio":"○","jishin":"×","tsunami":"×","kaji":"×","naisui":"×","kazan":"×"}}
,{"type":"Feature","geometry":{"type":"Point","coordinates":[132.512821,34.475817]},"properties":{"Name":"中山公園","Jusho":"広島県広島市安佐北区落合4-16","kouzui":"×","gake":"×","takashio":"×","jishin":"○","tsunami":"×","kaji":"○","naisui":"×","kazan":"×"}}
,{"type":"Feature","geometry":{"type":"Point","coordinates":[132.514663,34.479568]},"properties":{"Name":"落合東集会所","Jusho":"広島県広島市安佐北区落合5-10-14","kouzui":"○","gake":"○","takashio":"○","jishin":"×","tsunami":"×","kaji":"×","naisui":"×","kazan":"×"}}
,{"type":"Feature","geometry":{"type":"Point","coordinates":[132.513628,34.466706]},"properties":{"Name":"落合小学校","Jusho":"広島県広島市安佐北区落合南2-13-1","kouzui":"○","gake":"○","takashio":"○","jishin":"○","tsunami":"×","kaji":"×","naisui":"×","kazan":"×"}}
,{"type":"Feature","geometry":{"type":"Point","coordinates":[132.512844,34.468054]},"properties":{"Name":"落合幼稚園","Jusho":"広島県広島市安佐北区落合南2-13-2","kouzui":"○","gake":"×","takashio":"○","jishin":"×","tsunami":"×","kaji":"×","naisui":"×","kazan":"×"}}
,{"type":"Feature","geometry":{"type":"Point","coordinates":[132.514502,34.467536]},"properties":{"Name":"落合児童館","Jusho":"広島県広島市安佐北区落合南2-13-3","kouzui":"○","gake":"×","takashio":"○","jishin":"×","tsunami":"×","kaji":"×","naisui":"×","kazan":"×"}}
,{"type":"Feature","geometry":{"type":"Point","coordinates":[132.512073,34.468636]},"properties":{"Name":"落合集会所","Jusho":"広島県広島市安佐北区落合南2-4-5","kouzui":"○","gake":"×","takashio":"○","jishin":"×","tsunami":"×","kaji":"×","naisui":"×","kazan":"×"}}
,{"type":"Feature","geometry":{"type":"Point","coordinates":[132.344026,34.406454]},"properties":{"Name":"彩が丘中央公園","Jusho":"広島県広島市佐伯区河内南1-21","kouzui":"×","gake":"×","takashio":"×","jishin":"○","tsunami":"×","kaji":"×","naisui":"×","kazan":"×"}}
,{"type":"Feature","geometry":{"type":"Point","coordinates":[132.344282,34.406595]},"properties":{"Name":"彩が丘公民館","Jusho":"広島県広島市佐伯区河内南1-21-6","kouzui":"○","gake":"×","takashio":"○","jishin":"×","tsunami":"×","kaji":"×","naisui":"×","kazan":"×"}}
,{"type":"Feature","geometry":{"type":"Point","coordinates":[132.343995,34.410274]},"properties":{"Name":"彩が丘小学校","Jusho":"広島県広島市佐伯区河内南2-10-1","kouzui":"○","gake":"○","takashio":"○","jishin":"○","tsunami":"×","kaji":"×","naisui":"×","kazan":"×"}}
,{"type":"Feature","geometry":{"type":"Point","coordinates":[132.343594,34.409523]},"properties":{"Name":"彩が丘児童館","Jusho":"広島県広島市佐伯区河内南2-10-2","kouzui":"○","gake":"○","takashio":"○","jishin":"×","tsunami":"×","kaji":"×","naisui":"×","kazan":"×"}}
,{"type":"Feature","geometry":{"type":"Point","coordinates":[132.357289,34.361191]},"properties":{"Name":"五日市南小学校","Jusho":"広島県広島市佐伯区海老園3-18-1","kouzui":"○","gake":"○","takashio":"○","jishin":"○","tsunami":"×","kaji":"×","naisui":"×","kazan":"×"}}
,{"type":"Feature","geometry":{"type":"Point","coordinates":[132.356691,34.359978]},"properties":{"Name":"五日市南保育園","Jusho":"広島県広島市佐伯区海老園3-18-1","kouzui":"○","gake":"○","takashio":"○","jishin":"×","tsunami":"×","kaji":"×","naisui":"×","kazan":"×"}}
,{"type":"Feature","geometry":{"type":"Point","coordinates":[132.357118,34.360571]},"properties":{"Name":"五日市南児童館","Jusho":"広島県広島市佐伯区海老園3-18-2","kouzui":"○","gake":"○","takashio":"○","jishin":"×","tsunami":"×","kaji":"×","naisui":"×","kazan":"×"}}
,{"type":"Feature","geometry":{"type":"Point","coordinates":[132.359842,34.35942]},"properties":{"Name":"五日市南中学校","Jusho":"広島県広島市佐伯区海老園4-2-21","kouzui":"○","gake":"○","takashio":"○","jishin":"×","tsunami":"×","kaji":"×","naisui":"×","kazan":"×"}}
,{"type":"Feature","geometry":{"type":"Point","coordinates":[132.365515,34.363235]},"properties":{"Name":"海老山公園","Jusho":"広島県広島市佐伯区海老山町6","kouzui":"×","gake":"×","takashio":"×","jishin":"○","tsunami":"○","kaji":"×","naisui":"×","kazan":"×"}}
,{"type":"Feature","geometry":{"type":"Point","coordinates":[132.366882,34.359947]},"properties":{"Name":"広島なぎさ中学校・高等学校","Jusho":"広島県広島市佐伯区海老山南1-13-10","kouzui":"○","gake":"○","takashio":"○","jishin":"×","tsunami":"×","kaji":"×","naisui":"×","kazan":"×"}}
,{"type":"Feature","geometry":{"type":"Point","coordinates":[132.369032,34.375449]},"properties":{"Name":"五日市東小学校","Jusho":"広島県広島市佐伯区皆賀2-3-1","kouzui":"○","gake":"○","takashio":"○","jishin":"○","tsunami":"○","kaji":"×","naisui":"×","kazan":"×"}}
,{"type":"Feature","geometry":{"type":"Point","coordinates":[132.370327,34.37521]},"properties":{"Name":"五日市東児童館","Jusho":"広島県広島市佐伯区皆賀2-3-2","kouzui":"○","gake":"○","takashio":"○","jishin":"×","tsunami":"×","kaji":"×","naisui":"×","kazan":"×"}}
,{"type":"Feature","geometry":{"type":"Point","coordinates":[132.353413,34.361184]},"properties":{"Name":"楽々園公民館・老人いこいの家楽々荘","Jusho":"広島県広島市佐伯区楽々園5-8-32","kouzui":"○","gake":"○","takashio":"○","jishin":"×","tsunami":"×","kaji":"×","naisui":"×","kazan":"×"}}
,{"type":"Feature","geometry":{"type":"Point","coordinates":[132.356081,34.358973]},"properties":{"Name":"佐伯区スポーツセンター","Jusho":"広島県広島市佐伯区楽々園6-1-27","kouzui":"○","gake":"○","takashio":"○","jishin":"×","tsunami":"×","kaji":"×","naisui":"×","kazan":"×"}}
,{"type":"Feature","geometry":{"type":"Point","coordinates":[132.354018,34.3578]},"properties":{"Name":"楽々園小学校","Jusho":"広島県広島市佐伯区楽々園6-8-1","kouzui":"○","gake":"○","takashio":"○","jishin":"○","tsunami":"×","kaji":"×","naisui":"×","kazan":"×"}}
,{"type":"Feature","geometry":{"type":"Point","coordinates":[132.352909,34.357872]},